codigo_ibge,nome,latitude,longitude,distance_capital,distance_nearest_capital,distance_nearest_bigcity,health_region,tipo,Região,codigo_uf,UF,POP,POP_DOU,POP_TCU,RAZDEP,GINI,PIND,PMPOB,PPOB,RDPC,T_AGUA,T_BANAGUA,T_DENS,AGUA_ESGOTO,T_RMAXIDOSO,IDHM,IDHM_E,IDHM_L,IDHM_R,RANK_g100,ID_g100,Indicador_1_Endividamento,Nota_1,Indicador_2_PoupancaCorrente,Nota_2,Indicador_3_Obrigacoes_FinanceirasDisponibilidadeCaixa,Nota_3,Classificacao_CAPAG,Classificacao_CAUC,Total_inadimplencias,Amazonia_Legal,Semiarido,CidadeRegiao_SP,Valor_adicionado_bruto_Agropecuaria_precos_correntes1000,Valor_adicionado_bruto_Industria_precos_correntes1000,Valor_adicionado_bruto_Servicos_preços_correntes1000_exceto_AdministracaoDefesaEducacaoSaudePublicasSeguridadeSocial,Valor_adicionado_bruto_AdministracaoDefesaEducacaoSaudePublicasSeguridadeSocial_precos_correntes1000,Valor_adicionado_bruto_total_precos_correntes1000,ImpostosLiquidosSubsidiosSobreProdutos_precos_correntes1000,PIB2017_precos_correntes1000,PIB_per_capita_precos_correntes1,Atividade_Maior_Valor_Adicionado_Bruto,Primeiro_Confirmado,Primeira_Morte,Status_COVID,CAPACxCAUC
11,Rondônia,-10.83,-63.34,999999999999.0,999999999999.0,999999999999.0,999999999999,Estado,Norte,11,RO,1777225.0,1777225,1777225,46.74,0.56,6.39,14.8,33.33,670.82,95.13,79.62,27.15,12.43,1.61,0.69,0.577,0.8,0.712,0,não,999999999999.0,,999999999999.0,,999999999999.0,,,,,,,,999999999999.0,999999999999.0,999999999999.0,999999999999.0,999999999999.0,999999999999.0,43506.0,999999999999.0,,2020-03-20,2020-03-30,COVID Total,Outros
12,Acre,-8.77,-70.55,999999999999.0,999999999999.0,999999999999.0,999999999999,Estado,Norte,12,AC,881935.0,881935,881935,61.34,0.63,15.59,29.46,50.97,522.15,86.51,47.42,46.05,28.09,2.91,0.663,0.559,0.777,0.671,0,não,999999999999.0,,999999999999.0,,999999999999.0,,,,,,,,999999999999.0,999999999999.0,999999999999.0,999999999999.0,999999999999.0,999999999999.0,14271.0,999999999999.0,,2020-03-17,2020-04-06,COVID Total,Outros
13,Amazonas,-3.47,-65.1,999999999999.0,999999999999.0,999999999999.0,999999999999,Estado,Norte,13,AM,4144597.0,4144597,4144597,59.33,0.65,16.43,30.78,51.78,539.8,77.32,62.16,57.95,20.98,3.31,0.674,0.561,0.805,0.677,0,não,999999999999.0,,999999999999.0,,999999999999.0,,,,,,,,999999999999.0,999999999999.0,999999999999.0,999999999999.0,999999999999.0,999999999999.0,93204.0,999999999999.0,,2020-03-13,2020-03-24,COVID Total,Outros
14,Roraima,1.99,-61.33,999999999999.0,999999999999.0,999999999999.0,999999999999,Estado,Norte,14,RR,605761.0,605761,605761,57.5,0.63,15.66,26.65,45.72,605.59,93.35,74.04,51.22,12.44,2.45,0.707,0.628,0.809,0.695,0,não,999999999999.0,,999999999999.0,,999999999999.0,,,,,,,,999999999999.0,999999999999.0,999999999999.0,999999999999.0,999999999999.0,999999999999.0,12103.0,999999999999.0,,2020-03-21,2020-04-03,COVID Total,Outros
15,Pará,-3.79,-52.48,999999999999.0,999999999999.0,999999999999.0,999999999999,Estado,Norte,15,PA,8602865.0,8602865,8602865,55.83,0.62,15.9,32.33,55.99,446.76,84.7,57.5,49.4,29.05,3.78,0.646,0.528,0.789,0.646,0,não,999999999999.0,,999999999999.0,,999999999999.0,,,,,,,,999999999999.0,999999999999.0,999999999999.0,999999999999.0,999999999999.0,999999999999.0,155195.0,999999999999.0,,2020-03-18,2020-04-01,COVID Total,Outros
16,Amapá,1.41,-51.77,999999999999.0,999999999999.0,999999999999.0,999999999999,Estado,Norte,16,AP,845731.0,845731,845731,57.67,0.6,9.93,24.07,45.22,598.98,91.44,66.38,53.98,21.51,2.49,0.708,0.629,0.813,0.694,0,não,999999999999.0,,999999999999.0,,999999999999.0,,,,,,,,999999999999.0,999999999999.0,999999999999.0,999999999999.0,999999999999.0,999999999999.0,15480.0,999999999999.0,,2020-03-20,2020-04-04,COVID Total,Outros
17,Tocantins,-9.46,-48.26,999999999999.0,999999999999.0,999999999999.0,999999999999,Estado,Norte,17,TO,1572866.0,1572866,1572866,52.9,0.6,10.21,22.15,44.71,586.62,94.33,80.41,31.22,8.07,3.5,0.699,0.624,0.793,0.69,0,não,999999999999.0,,999999999999.0,,999999999999.0,,,,,,,,999999999999.0,999999999999.0,999999999999.0,999999999999.0,999999999999.0,999999999999.0,34102.0,999999999999.0,,2020-03-18,2020-04-15,COVID Total,Outros
21,Maranhão,-5.42,-45.44,999999999999.0,999999999999.0,999999999999.0,999999999999,Estado,Nordeste,21,MA,7075181.0,7075181,7075181,58.65,0.62,22.47,39.53,63.58,360.34,82.12,51.79,42.7,23.99,5.54,0.639,0.562,0.757,0.612,0,não,999999999999.0,,999999999999.0,,999999999999.0,,,,,,,,999999999999.0,999999999999.0,999999999999.0,999999999999.0,999999999999.0,999999999999.0,89524.0,999999999999.0,,2020-03-20,2020-03-29,COVID Total,Outros
22,Piauí,-6.6,-42.28,999999999999.0,999999999999.0,999999999999.0,999999999999,Estado,Nordeste,22,PI,3273227.0,3273227,3273227,51.7,0.61,18.77,34.11,58.13,416.93,81.6,67.12,31.44,8.15,4.99,0.646,0.547,0.777,0.635,0,não,999999999999.0,,999999999999.0,,999999999999.0,,,,,,,,999999999999.0,999999999999.0,999999999999.0,999999999999.0,999999999999.0,999999999999.0,45359.0,999999999999.0,,2020-03-19,2020-03-27,COVID Total,Outros
23,Ceará,-5.2,-39.53,999999999999.0,999999999999.0,999999999999.0,999999999999,Estado,Nordeste,23,CE,9132078.0,9132078,9132078,50.32,0.61,14.69,30.32,54.85,460.63,86.08,76.28,34.13,10.99,4.6,0.682,0.615,0.793,0.651,0,não,999999999999.0,,999999999999.0,,999999999999.0,,,,,,,,999999999999.0,999999999999.0,999999999999.0,999999999999.0,999999999999.0,999999999999.0,147890.0,999999999999.0,,2020-03-16,2020-03-26,COVID Total,Outros
24,Rio Grande do Norte,-5.81,-36.59,999999999999.0,999999999999.0,999999999999.0,999999999999,Estado,Nordeste,24,RN,3506853.0,3506853,3506853,48.03,0.6,10.33,23.79,47.7,545.42,89.15,85.06,29.67,9.4,3.82,0.684,0.597,0.792,0.678,0,não,999999999999.0,,999999999999.0,,999999999999.0,,,,,,,,999999999999.0,999999999999.0,999999999999.0,999999999999.0,999999999999.0,999999999999.0,64295.0,999999999999.0,,2020-03-12,2020-03-28,COVID Total,Outros
25,Paraíba,-7.28,-36.72,999999999999.0,999999999999.0,999999999999.0,999999999999,Estado,Nordeste,25,PB,4018127.0,4018127,4018127,51.14,0.61,13.39,28.93,53.65,474.94,81.96,78.91,28.94,11.75,4.73,0.658,0.555,0.783,0.656,0,não,999999999999.0,,999999999999.0,,999999999999.0,,,,,,,,999999999999.0,999999999999.0,999999999999.0,999999999999.0,999999999999.0,999999999999.0,62387.0,999999999999.0,,2020-03-18,2020-03-31,COVID Total,Outros
26,Pernambuco,-8.38,-37.86,999999999999.0,999999999999.0,999999999999.0,999999999999,Estado,Nordeste,26,PE,9557071.0,9557071,9557071,49.34,0.62,12.32,27.17,51.86,525.64,83.69,78.22,29.89,10.83,4.38,0.673,0.574,0.789,0.673,0,não,999999999999.0,,999999999999.0,,999999999999.0,,,,,,,,999999999999.0,999999999999.0,999999999999.0,999999999999.0,999999999999.0,999999999999.0,181551.0,999999999999.0,,2020-03-12,2020-03-25,COVID Total,Outros
27,Alagoas,-9.62,-36.82,999999999999.0,999999999999.0,999999999999.0,999999999999,Estado,Nordeste,27,AL,3337357.0,3337357,3337357,54.3,0.63,16.66,34.29,59.76,432.56,77.56,75.64,35.04,13.07,4.51,0.631,0.52,0.755,0.641,0,não,999999999999.0,,999999999999.0,,999999999999.0,,,,,,,,999999999999.0,999999999999.0,999999999999.0,999999999999.0,999999999999.0,999999999999.0,52843.0,999999999999.0,,2020-03-08,2020-03-31,COVID Total,Outros
28,Sergipe,-10.57,-37.45,999999999999.0,999999999999.0,999999999999.0,999999999999,Estado,Nordeste,28,SE,2298696.0,2298696,2298696,49.34,0.62,11.7,27.89,52.13,523.53,89.13,82.24,29.14,11.02,3.37,0.665,0.56,0.781,0.672,0,não,999999999999.0,,999999999999.0,,999999999999.0,,,,,,,,999999999999.0,999999999999.0,999999999999.0,999999999999.0,999999999999.0,999999999999.0,40704.0,999999999999.0,,2020-03-14,2020-04-02,COVID Total,Outros
29,Bahia,-13.29,-41.71,999999999999.0,999999999999.0,999999999999.0,999999999999,Estado,Nordeste,29,BA,14873064.0,14873064,14873064,48.92,0.62,13.79,28.72,52.71,496.73,85.66,77.6,27.91,9.35,4.39,0.66,0.555,0.783,0.663,0,não,999999999999.0,,999999999999.0,,999999999999.0,,,,,,,,999999999999.0,999999999999.0,999999999999.0,999999999999.0,999999999999.0,999999999999.0,268661.0,999999999999.0,,2020-03-06,2020-03-29,COVID Total,Outros
31,Minas Gerais,-18.1,-44.38,999999999999.0,999999999999.0,999999999999.0,999999999999,Estado,Sudeste,31,MG,21168791.0,21168791,21168791,44.01,0.56,3.49,10.97,28.85,749.69,94.44,94.91,18.91,1.84,2.14,0.731,0.638,0.838,0.73,0,não,999999999999.0,,999999999999.0,,999999999999.0,,,,,,,,999999999999.0,999999999999.0,999999999999.0,999999999999.0,999999999999.0,999999999999.0,576199.0,999999999999.0,,2020-03-08,2020-03-30,COVID Total,Outros
32,Espírito Santo,-19.19,-40.34,999999999999.0,999999999999.0,999999999999.0,999999999999,Estado,Sudeste,32,ES,4018650.0,4018650,4018650,43.26,0.56,2.67,9.53,26.82,815.43,96.45,96.89,20.59,0.99,1.66,0.74,0.653,0.835,0.743,0,não,999999999999.0,,999999999999.0,,999999999999.0,,,,,,,,999999999999.0,999999999999.0,999999999999.0,999999999999.0,999999999999.0,999999999999.0,113352.0,999999999999.0,,2020-03-05,2020-04-02,COVID Total,Outros
33,Rio de Janeiro,-22.25,-42.66,999999999999.0,999999999999.0,999999999999.0,999999999999,Estado,Sudeste,33,RJ,17264943.0,17264943,17264943,43.07,0.59,1.98,7.23,22.26,1039.3,95.84,94.73,30.33,1.67,1.53,0.761,0.675,0.835,0.782,0,não,999999999999.0,,999999999999.0,,999999999999.0,,,,,,,,999999999999.0,999999999999.0,999999999999.0,999999999999.0,999999999999.0,999999999999.0,671362.0,999999999999.0,,2020-03-05,2020-03-19,COVID Total,Outros
35,São Paulo,-22.19,-48.79,999999999999.0,999999999999.0,999999999999.0,999999999999,Estado,Sudeste,35,SP,45919049.0,45919049,45919049,41.53,0.56,1.16,4.66,16.13,1084.46,98.57,97.12,28.66,0.6,1.07,0.783,0.719,0.845,0.789,0,não,999999999999.0,,999999999999.0,,999999999999.0,,,,,,,,999999999999.0,999999999999.0,999999999999.0,999999999999.0,999999999999.0,999999999999.0,2119854.0,999999999999.0,,2020-02-25,2020-03-17,COVID Total,Outros
41,Paraná,-24.89,-51.55,999999999999.0,999999999999.0,999999999999.0,999999999999,Estado,Sul,41,PR,11433957.0,11433957,11433957,43.78,0.53,1.96,6.46,19.7,890.89,96.71,96.69,16.85,0.97,1.31,0.749,0.668,0.83,0.757,0,não,999999999999.0,,999999999999.0,,999999999999.0,,,,,,,,999999999999.0,999999999999.0,999999999999.0,999999999999.0,999999999999.0,999999999999.0,421375.0,999999999999.0,,2020-03-12,2020-03-27,COVID Total,Outros
42,Santa Catarina,-27.45,-50.95,999999999999.0,999999999999.0,999999999999.0,999999999999,Estado,Sul,42,SC,7164788.0,7164788,7164788,40.34,0.49,1.01,3.65,12.36,983.9,94.13,97.0,13.15,0.78,0.76,0.774,0.697,0.86,0.773,0,não,999999999999.0,,999999999999.0,,999999999999.0,,,,,,,,999999999999.0,999999999999.0,999999999999.0,999999999999.0,999999999999.0,999999999999.0,277192.0,999999999999.0,,2020-03-12,2020-03-26,COVID Total,Outros
43,Rio Grande do Sul,-30.17,-53.5,999999999999.0,999999999999.0,999999999999.0,999999999999,Estado,Sul,43,RS,11377239.0,11377239,11377239,43.18,0.54,1.98,6.37,18.65,959.24,96.17,96.46,16.25,0.89,1.18,0.746,0.642,0.84,0.769,0,não,999999999999.0,,999999999999.0,,999999999999.0,,,,,,,,999999999999.0,999999999999.0,999999999999.0,999999999999.0,999999999999.0,999999999999.0,423151.0,999999999999.0,,2020-03-10,2020-03-25,COVID Total,Outros
50,Mato Grosso do Sul,-20.51,-54.54,999999999999.0,999999999999.0,999999999999.0,999999999999,Estado,Centro-Oeste,50,MS,2778986.0,2778986,2778986,46.22,0.56,3.55,9.92,26.83,799.34,96.22,93.76,24.97,3.93,1.77,0.729,0.629,0.833,0.74,0,não,999999999999.0,,999999999999.0,,999999999999.0,,,,,,,,999999999999.0,999999999999.0,999999999999.0,999999999999.0,999999999999.0,999999999999.0,96372.0,999999999999.0,,2020-03-14,2020-03-31,COVID Total,Outros
51,Mato Grosso,-12.64,-55.42,999999999999.0,999999999999.0,999999999999.0,999999999999,Estado,Centro-Oeste,51,MT,3484466.0,3484466,3484466,44.56,0.55,4.41,10.52,27.0,762.52,95.17,90.37,26.58,5.16,1.71,0.725,0.635,0.821,0.732,0,não,999999999999.0,,999999999999.0,,999999999999.0,,,,,,,,999999999999.0,999999999999.0,999999999999.0,999999999999.0,999999999999.0,999999999999.0,126805.0,999999999999.0,,2020-03-20,2020-04-03,COVID Total,Outros
52,Goiás,-15.98,-49.86,999999999999.0,999999999999.0,999999999999.0,999999999999,Estado,Centro-Oeste,52,GO,7018354.0,7018354,7018354,43.41,0.55,2.32,7.59,24.22,810.97,96.76,93.66,19.26,3.38,1.48,0.735,0.646,0.827,0.742,0,não,999999999999.0,,999999999999.0,,999999999999.0,,,,,,,,999999999999.0,999999999999.0,999999999999.0,999999999999.0,999999999999.0,999999999999.0,191899.0,999999999999.0,,2020-03-12,2020-03-26,COVID Total,Outros
53,Distrito Federal,-15.83,-47.86,999999999999.0,999999999999.0,999999999999.0,999999999999,Estado,Centro-Oeste,53,DF,3015268.0,3015268,3015268,40.14,0.63,1.19,4.93,16.0,1715.11,98.13,96.01,23.48,0.72,0.71,0.824,0.742,0.873,0.863,0,não,999999999999.0,,999999999999.0,,999999999999.0,,,,,,,,999999999999.0,999999999999.0,999999999999.0,999999999999.0,999999999999.0,999999999999.0,244683.0,999999999999.0,,2020-03-07,2020-03-29,COVID Total,Outros
1100015,Alta Floresta D'Oeste,-11.9283,-61.9953,409.2,409.2,409.2,II Delegacia Regional de Saúde,Municipio,Norte,11,RO,22945.0,22945,22945,47.37,0.58,14.29,26.04,47.12,476.99,93.69,80.2,22.58,9.31,2.2,0.641,0.526,0.763,0.657,0,não,0.0338,A,0.9118,B,0.0,n.d.,n.d.,Inadimplente,2.0,Sim,Não,Não,169623.256,27804.789,117717.149,154926.48,470071.673,28792.515,498864.189,19611.75,"Administração, defesa, educação e saúde públicas e seguridade social",2020-05-02,,Contaminação sem óbitos,Outros
1100023,Ariquemes,-9.90571,-63.0325,158.95,158.95,158.95,Departamento de Epidemiologia,Municipio,Norte,11,RO,107863.0,107863,107863,46.68,0.53,4.36,11.54,29.04,689.95,98.54,85.35,27.15,11.4,1.4,0.702,0.6,0.806,0.716,0,não,0.2122,A,0.8219,A,0.0897,A,A,Inadimplente,1.0,Sim,Não,Não,165216.94,330319.176,933934.701,634590.874,2064061.693,232012.013,2296073.705,21389.67,Demais serviços,2020-04-10,2020-05-17,COVID Total,Outros
1100031,Cabixi,-13.4945,-60.552,640.62,533.57,532.38,III Delegacia Regional de Saúde,Municipio,Norte,11,RO,5312.0,5312,5312,48.12,0.51,7.27,21.2,46.98,457.17,95.49,91.63,19.93,3.31,3.1,0.65,0.559,0.757,0.65,0,não,0.0019,A,0.9528,C,0.4138,A,C,Adimplente,0.0,Sim,Não,Não,63021.988,4796.667,22430.865,43149.749,133399.269,5494.276,138893.545,22315.8,"Administração, defesa, educação e saúde públicas e seguridade social",2020-06-04,2020-06-30,COVID Total,Outros
1100049,Cacoal,-11.4343,-61.4562,399.91,399.91,399.91,II Delegacia Regional de Saúde,Municipio,Norte,11,RO,85359.0,85359,85359,43.79,0.57,5.97,13.08,29.82,738.06,97.96,93.44,20.5,1.85,1.84,0.718,0.62,0.821,0.727,0,não,0.1687,A,0.9563,C,0.2288,A,C,Adimplente,0.0,Sim,Não,Não,255059.849,224595.381,908665.369,521368.147,1909688.746,217834.509,2127523.254,24037.91,Demais serviços,2020-04-30,2020-06-02,COVID Total,Outros
1100056,Cerejeiras,-13.187,-60.8168,596.19,574.77,573.77,III Delegacia Regional de Saúde,Municipio,Norte,11,RO,16323.0,16323,16323,45.67,0.5,4.72,13.7,34.85,577.18,97.53,86.87,16.66,5.34,1.43,0.692,0.602,0.799,0.688,0,não,0.0486,A,0.9742,C,0.0128,A,C,Adimplente,0.0,Sim,Não,Não,61939.89,22170.163,192882.452,107818.724,384811.229,63712.941,448524.171,25009.71,"Administração, defesa, educação e saúde públicas e seguridade social",2020-05-22,2020-05-22,COVID Total,Outros
1100064,Colorado do Oeste,-13.1174,-60.5454,607.23,552.99,552.22,III Delegacia Regional de Saúde,Municipio,Norte,11,RO,15882.0,15882,15882,45.82,0.49,6.64,15.76,37.11,535.41,95.54,93.89,14.73,2.99,1.9,0.685,0.584,0.814,0.676,0,não,0.0309,A,0.9526,C,0.3924,A,C,Inadimplente,3.0,Sim,Não,Não,78345.65,29585.241,99815.483,109525.353,317271.727,22774.776,340046.503,18413.74,"Administração, defesa, educação e saúde públicas e seguridade social",2020-06-06,,Contaminação sem óbitos,C/D Inadimplente
1100072,Corumbiara,-12.9551,-60.8947,570.23,570.23,570.23,III Delegacia Regional de Saúde,Municipio,Norte,11,RO,7391.0,7391,7391,46.32,0.48,10.16,24.02,46.42,402.15,93.24,86.43,14.46,6.31,1.11,0.613,0.473,0.774,0.63,0,não,0.0178,A,0.0,n.d.,0.1277,A,n.d.,Adimplente,0.0,Sim,Não,Não,227123.262,10132.076,26156.711,57590.834,321002.883,9390.331,330393.214,38156.05,"Produção florestal, pesca e aquicultura",2020-06-06,,Contaminação sem óbitos,Outros
1100080,Costa Marques,-12.4367,-64.228,410.31,410.31,410.31,I Delegacia Regional de Saúde,Municipio,Norte,11,RO,18331.0,18331,18331,60.13,0.52,9.66,30.48,55.8,370.77,95.67,54.32,36.18,36.41,2.12,0.611,0.493,0.751,0.616,0,não,0.2318,A,0.8775,A,0.2287,A,A,Adimplente,0.0,Sim,Não,Não,62851.881,5951.6,40995.39,98159.019,207957.89,8034.366,215992.256,12413.35,"Administração, defesa, educação e saúde públicas e seguridade social",2020-05-24,2020-06-27,COVID Total,Outros
1100098,Espigão D'Oeste,-11.5266,-61.0252,439.97,439.97,439.97,II Delegacia Regional de Saúde,Municipio,Norte,11,RO,32374.0,32374,32374,46.83,0.52,6.6,13.86,35.08,590.8,93.7,84.71,19.97,7.66,1.88,0.672,0.536,0.819,0.691,0,não,0.0048,A,0.8352,A,0.0209,A,A,Adimplente,0.0,Sim,Não,Não,124625.439,47622.035,171562.852,186837.462,530647.789,47334.51,577982.298,17498.71,"Administração, defesa, educação e saúde públicas e seguridade social",2020-05-01,2020-05-22,COVID Total,Outros
1100106,Guajará-Mirim,-10.7889,-65.3296,274.59,274.59,274.59,Departamento de Epidemiologia,Municipio,Norte,11,RO,46174.0,46174,46174,56.67,0.54,10.38,23.47,43.92,494.69,93.26,49.32,43.4,36.84,1.73,0.657,0.519,0.823,0.663,0,não,0.8223,B,0.8987,A,0.236,A,B,Inadimplente,4.0,Sim,Não,Não,47073.511,25607.512,344446.397,275441.684,692569.103,112000.504,804569.608,16955.8,"Administração, defesa, educação e saúde públicas e seguridade social",2020-04-30,2020-04-30,COVID Total,Outros
1100114,Jaru,-10.4318,-62.4788,242.49,242.49,242.49,I Delegacia Regional de Saúde,Municipio,Norte,11,RO,51775.0,51775,51775,47.49,0.49,4.32,13.78,32.12,575.14,97.09,82.81,19.09,15.11,1.4,0.689,0.577,0.825,0.687,0,não,0.1894,A,0.7789,A,0.0014,A,A,Adimplente,0.0,Sim,Não,Não,172324.511,220173.613,548564.144,316104.998,1257167.267,156461.029,1413628.295,25301.65,Demais serviços,2020-03-30,2020-06-13,COVID Total,Outros
1100122,Ji-Paraná,-10.8777,-61.9322,319.19,319.19,319.19,I Delegacia Regional de Saúde,Municipio,Norte,11,RO,128969.0,128969,128969,43.98,0.53,2.67,8.56,26.26,743.35,97.81,89.31,23.3,5.87,2.12,0.714,0.617,0.81,0.728,67,sim,0.1203,A,0.8499,A,0.0885,A,A,Adimplente,0.0,Sim,Não,Não,142860.713,362951.788,1389114.442,732030.998,2626957.941,399800.843,3026758.784,22814.71,Demais serviços,2020-03-20,2020-04-16,COVID Total,Outros
1100130,Machadinho D'Oeste,-9.44363,-61.9818,223.87,223.87,223.87,Departamento de Epidemiologia,Municipio,Norte,11,RO,39991.0,39991,39991,52.55,0.55,17.59,28.55,51.72,401.42,92.56,69.34,28.87,17.19,3.44,0.596,0.446,0.755,0.629,0,não,0.154,A,0.923,B,0.1502,A,B,Inadimplente,3.0,Sim,Não,Não,183427.119,38600.224,131740.41,219192.738,572960.491,34150.717,607111.207,15724.6,"Administração, defesa, educação e saúde públicas e seguridade social",2020-05-09,2020-06-11,COVID Total,Outros
1100148,Nova Brasilândia D'Oeste,-11.7247,-62.3127,372.53,372.53,372.53,II Delegacia Regional de Saúde,Municipio,Norte,11,RO,20474.0,20474,20474,46.8,0.56,10.3,23.16,46.94,499.59,94.07,74.6,20.31,9.6,2.02,0.643,0.524,0.763,0.664,0,não,0.0579,A,0.8066,A,0.0,n.d.,n.d.,Adimplente,0.0,Sim,Não,Não,115926.115,17463.031,82517.52,122068.595,337975.261,22990.49,360965.751,16598.42,"Administração, defesa, educação e saúde públicas e seguridade social",2020-05-06,,Contaminação sem óbitos,Outros
1100155,Ouro Preto do Oeste,-10.7167,-62.2565,282.38,282.38,282.38,I Delegacia Regional de Saúde,Municipio,Norte,11,RO,36035.0,36035,36035,46.08,0.48,3.71,11.73,30.04,576.51,97.8,91.58,17.02,5.61,1.9,0.682,0.569,0.812,0.687,0,não,0.0187,A,3.9713,C,0.0347,A,C,Adimplente,0.0,Sim,Não,Não,135777.046,88881.228,261133.897,233087.604,718879.775,58833.696,777713.471,19560.69,"Administração, defesa, educação e saúde públicas e seguridade social",2020-04-08,2020-06-04,COVID Total,Outros
1100189,Pimenta Bueno,-11.672,-61.198,438.4,438.4,438.4,II Delegacia Regional de Saúde,Municipio,Norte,11,RO,36660.0,36660,36660,45.13,0.54,2.29,9.33,25.37,734.76,97.21,91.07,21.55,4.7,1.54,0.71,0.613,0.803,0.726,0,não,0.0904,A,0.9182,B,0.043,A,B,Inadimplente,1.0,Sim,Não,Não,107191.821,177813.443,391769.504,230640.579,907415.346,168995.461,1076410.808,28288.63,"Administração, defesa, educação e saúde públicas e seguridade social",2020-04-26,2020-06-11,COVID Total,Outros
1100205,Porto Velho,-8.76077,-63.8999,0.0,0.0,0.0,Departamento de Epidemiologia,Capital,Norte,11,RO,529544.0,529544,529544,42.97,0.56,2.64,7.95,21.78,929.19,92.87,72.14,36.73,17.76,0.75,0.736,0.638,0.819,0.764,0,não,0.2973,A,0.905,B,0.3391,A,B,Inadimplente,5.0,Sim,Não,Não,589994.738,5156421.836,5767120.932,3186560.429,14700097.935,1814437.263,16514535.198,31793.2,"Eletricidade e gás, água, esgoto, atividades de gestão de resíduos e descontaminação",2020-03-21,2020-03-30,COVID Total,Outros
1100254,Presidente Médici,-11.169,-61.8986,346.03,346.03,346.03,I Delegacia Regional de Saúde,Municipio,Norte,11,RO,18986.0,18986,18986,46.95,0.53,9.3,19.39,40.89,520.2,93.77,85.3,17.7,9.63,2.47,0.664,0.55,0.792,0.671,0,não,0.3702,A,0.9565,C,1.2326,C,C,Adimplente,0.0,Sim,Não,Não,103300.377,38543.886,108624.432,129143.973,379612.668,35437.458,415050.126,18760.18,"Administração, defesa, educação e saúde públicas e seguridade social",2020-05-17,2020-06-11,COVID Total,Outros
1100262,Rio Crespo,-9.69965,-62.9011,151.38,151.38,151.38,Departamento de Epidemiologia,Municipio,Norte,11,RO,3764.0,3764,3764,53.02,0.58,16.85,28.5,54.28,420.61,97.99,83.94,27.09,8.15,2.49,0.643,0.513,0.813,0.637,0,não,0.0,n.d.,0.0,n.d.,0.0,n.d.,n.d.,Inadimplente,7.0,Sim,Não,Não,59951.201,3231.352,10760.811,28960.88,102904.244,3416.236,106320.48,27767.17,"Pecuária, inclusive apoio à pecuária",2020-05-17,,Contaminação sem óbitos,Outros
1100288,Rolim de Moura,-11.7271,-61.7714,403.77,403.77,403.77,II Delegacia Regional de Saúde,Municipio,Norte,11,RO,55058.0,55058,55058,44.5,0.53,3.96,10.77,31.34,657.65,97.4,93.72,20.06,4.5,1.23,0.7,0.598,0.808,0.709,0,não,0.1526,A,4.4108,C,1.5337,C,C,Inadimplente,4.0,Sim,Não,Não,105487.342,314748.582,437654.08,337009.795,1194899.799,102624.998,1297524.797,22734.08,"Administração, defesa, educação e saúde públicas e seguridade social",2020-04-05,2020-04-26,COVID Total,C/D Inadimplente
1100296,Santa Luzia D'Oeste,-11.9074,-61.7777,419.88,419.88,419.88,II Delegacia Regional de Saúde,Municipio,Norte,11,RO,6495.0,6495,6495,45.72,0.49,8.2,16.49,40.67,476.08,93.08,87.69,15.24,8.09,2.15,0.67,0.564,0.812,0.657,0,não,0.0429,A,0.9538,C,0.1269,A,C,Inadimplente,7.0,Sim,Não,Não,56677.572,14051.554,29353.952,51731.705,151814.783,6797.676,158612.459,19347.7,"Administração, defesa, educação e saúde públicas e seguridade social",2020-05-15,,Contaminação sem óbitos,C/D Inadimplente
1100304,Vilhena,-12.7502,-60.1488,603.84,539.64,539.53,III Delegacia Regional de Saúde,Municipio,Norte,11,RO,99854.0,99854,99854,44.68,0.5,2.1,6.37,22.39,768.98,98.16,97.28,21.21,1.55,1.4,0.731,0.659,0.808,0.734,0,não,0.4859,A,0.8512,A,0.0807,A,A,Adimplente,0.0,Sim,Não,Não,162728.257,412379.634,1060234.399,589778.483,2225120.774,330461.217,2555581.99,26723.64,Demais serviços,2020-04-05,2020-06-03,COVID Total,Outros
1100320,São Miguel do Guaporé,-11.6953,-62.7192,350.95,350.95,350.95,I Delegacia Regional de Saúde,Municipio,Norte,11,RO,23005.0,23005,23005,50.32,0.62,21.83,33.34,53.28,440.6,97.43,77.44,24.35,9.43,1.49,0.646,0.537,0.781,0.644,0,não,0.0622,A,1.7752,C,0.0372,A,C,Inadimplente,4.0,Sim,Não,Não,223963.773,104367.872,138316.97,145668.311,612316.927,37587.186,649904.113,26876.64,"Agricultura, inclusive apoio à agricultura e a pós colheita",2020-05-12,2020-05-22,COVID Total,C/D Inadimplente
1100338,Nova Mamoré,-10.4077,-65.3346,241.41,241.41,241.41,Departamento de Epidemiologia,Municipio,Norte,11,RO,30583.0,30583,30583,56.64,0.52,11.73,28.2,52.95,377.34,93.81,57.14,31.45,31.57,2.03,0.587,0.424,0.769,0.619,0,não,0.0467,A,0.8512,A,0.5553,A,A,Adimplente,0.0,Sim,Não,Não,183650.56,20487.199,85529.362,163058.041,452725.162,20301.307,473026.469,16372.8,"Pecuária, inclusive apoio à pecuária",2020-05-12,2020-05-22,COVID Total,Outros
1100346,Alvorada D'Oeste,-11.3463,-62.2847,337.52,337.52,337.52,I Delegacia Regional de Saúde,Municipio,Norte,11,RO,14411.0,14411,14411,48.82,0.53,11.71,23.63,45.04,469.26,94.31,80.76,17.85,7.37,2.81,0.643,0.534,0.763,0.654,0,não,0.1946,A,0.0,n.d.,0.6591,A,n.d.,Adimplente,0.0,Sim,Não,Não,82744.32,10369.779,57921.307,99693.259,250728.665,11962.872,262691.537,15685.89,"Administração, defesa, educação e saúde públicas e seguridade social",2020-05-06,2020-06-02,COVID Total,Outros
1100379,Alto Alegre dos Parecis,-12.132,-61.835,437.6,437.6,437.6,II Delegacia Regional de Saúde,Municipio,Norte,11,RO,13241.0,13241,13241,52.06,0.54,21.1,33.84,55.19,341.22,93.59,77.53,24.2,15.73,2.2,0.592,0.443,0.777,0.603,0,não,0.0933,A,0.9401,B,0.0288,A,B,Inadimplente,2.0,Sim,Não,Não,174973.969,14001.87,46969.895,86674.643,322620.376,12820.007,335440.383,23883.26,"Agricultura, inclusive apoio à agricultura e a pós colheita",2020-05-04,2020-06-07,COVID Total,Outros
1100403,Alto Paraíso,-9.71429,-63.3188,123.73,123.73,123.73,Departamento de Epidemiologia,Municipio,Norte,11,RO,21428.0,21428,21428,53.17,0.54,8.34,18.03,43.91,498.49,95.29,72.84,21.88,15.58,2.01,0.625,0.457,0.804,0.664,0,não,0.0113,A,-4.6379,A,-0.001,C,C,Inadimplente,1.0,Sim,Não,Não,87557.377,19096.979,77941.943,116313.615,300909.913,18874.476,319784.39,15288.98,"Administração, defesa, educação e saúde públicas e seguridade social",2020-04-18,2020-05-14,COVID Total,C/D Inadimplente
1100452,Buritis,-10.1943,-63.8324,159.57,159.57,159.57,Departamento de Epidemiologia,Municipio,Norte,11,RO,39654.0,39654,39654,51.51,0.5,9.18,20.83,41.94,458.05,90.12,77.33,24.71,13.51,1.9,0.616,0.479,0.751,0.65,0,não,0.1843,A,-39.8789,A,0.0197,A,A,Adimplente,0.0,Sim,Não,Não,189479.535,35527.299,176300.651,218831.711,620139.197,46093.941,666233.138,17063.65,"Administração, defesa, educação e saúde públicas e seguridade social",2020-04-16,2020-05-14,COVID Total,Outros
1100502,Novo Horizonte do Oeste,-11.6961,-61.9951,387.26,387.26,387.26,II Delegacia Regional de Saúde,Municipio,Norte,11,RO,8538.0,8538,8538,47.61,0.51,16.6,32.25,54.79,346.38,92.66,86.25,22.51,8.4,3.54,0.634,0.527,0.799,0.606,0,não,0.4164,A,5.673,C,0.7766,A,C,Inadimplente,4.0,Sim,Não,Não,63004.286,9440.453,30185.692,58762.204,161392.635,6910.678,168303.313,16744.93,"Administração, defesa, educação e saúde públicas e seguridade social",2020-04-30,2020-06-13,COVID Total,C/D Inadimplente
1100601,Cacaulândia,-10.349,-62.9043,207.62,207.62,207.62,Departamento de Epidemiologia,Municipio,Norte,11,RO,6230.0,6230,6230,53.74,0.56,8.8,22.02,45.4,499.93,93.68,74.25,26.48,10.75,2.68,0.646,0.506,0.801,0.664,0,não,0.0247,A,0.0,n.d.,0.027,A,n.d.,Inadimplente,2.0,Sim,Não,Não,74768.699,3246.505,17742.789,41093.705,136851.698,3936.747,140788.446,21793.88,"Pecuária, inclusive apoio à pecuária",2020-05-12,,Contaminação sem óbitos,Outros
1100700,Campo Novo de Rondônia,-10.5712,-63.6266,203.53,203.53,203.53,Departamento de Epidemiologia,Municipio,Norte,11,RO,14139.0,14139,14139,53.14,0.67,15.58,31.24,54.43,507.69,91.75,60.87,26.32,16.2,1.72,0.593,0.404,0.772,0.667,0,não,0.5063,A,0.7883,A,2.5545,C,C,Inadimplente,1.0,Sim,Não,Não,124132.172,25390.693,30190.734,87692.761,267406.36,9125.49,276531.85,19092.23,"Pecuária, inclusive apoio à pecuária",2020-05-02,2020-05-02,COVID Total,C/D Inadimplente
1100809,Candeias do Jamari,-8.7907,-63.7005,22.16,22.16,22.16,Departamento de Epidemiologia,Municipio,Norte,11,RO,26693.0,26693,26693,54.61,0.47,7.14,15.8,38.44,463.63,95.88,74.32,40.29,16.08,1.66,0.649,0.512,0.819,0.652,0,não,0.2343,A,0.0,n.d.,0.9126,A,n.d.,Inadimplente,4.0,Sim,Não,Não,85427.843,147468.283,121000.185,151774.464,505670.775,32484.279,538155.053,21299.57,"Administração, defesa, educação e saúde públicas e seguridade social",2020-04-26,2020-05-19,COVID Total,Outros
1100908,Castanheiras,-11.4253,-61.9482,365.27,365.27,365.27,II Delegacia Regional de Saúde,Municipio,Norte,11,RO,3052.0,3052,3052,48.71,0.5,12.02,21.08,41.69,455.53,95.22,87.36,20.52,5.47,1.18,0.658,0.547,0.803,0.65,0,não,0.2845,A,2.3348,C,0.0399,A,C,Inadimplente,2.0,Sim,Não,Não,75536.641,1464.577,6979.587,24985.29,108966.095,2516.974,111483.07,31403.68,"Produção florestal, pesca e aquicultura",2020-06-11,,Contaminação sem óbitos,C/D Inadimplente
1100924,Chupinguaia,-12.5611,-60.8877,535.61,535.61,535.61,III Delegacia Regional de Saúde,Municipio,Norte,11,RO,11182.0,11182,11182,50.76,0.47,5.39,16.12,37.88,483.36,85.16,83.49,29.61,8.08,0.88,0.652,0.514,0.82,0.659,0,não,0.0022,A,0.9228,B,0.0482,A,B,Inadimplente,1.0,Sim,Não,Não,105949.705,47085.879,43868.886,71188.849,268093.318,12669.764,280763.081,26504.59,"Pecuária, inclusive apoio à pecuária",2020-06-03,,Contaminação sem óbitos,Outros
1100940,Cujubim,-9.36065,-62.5846,159.09,159.09,159.09,Departamento de Epidemiologia,Municipio,Norte,11,RO,25215.0,25215,25215,54.11,0.52,9.04,19.56,40.1,495.31,94.18,66.32,33.65,21.04,0.74,0.612,0.439,0.789,0.663,0,não,0.0614,A,0.8379,A,0.1862,A,A,Adimplente,0.0,Sim,Não,Não,84130.048,42915.067,56383.864,126054.037,309483.016,14539.945,324022.961,14437.6,"Administração, defesa, educação e saúde públicas e seguridade social",2020-04-29,2020-04-29,COVID Total,Outros
1101005,Governador Jorge Teixeira,-10.61,-62.7371,241.92,241.92,241.92,I Delegacia Regional de Saúde,Municipio,Norte,11,RO,7767.0,7767,7767,51.22,0.55,11.52,27.2,53.67,396.36,94.71,76.85,23.3,6.33,3.41,0.596,0.444,0.762,0.627,0,não,0.1478,A,0.8656,A,0.2295,A,A,Inadimplente,5.0,Sim,Não,Não,95410.22,4415.378,17607.027,59440.595,176873.219,5756.128,182629.348,18740.83,"Pecuária, inclusive apoio à pecuária",2020-04-30,,Contaminação sem óbitos,Outros
1101104,Itapuã do Oeste,-9.19687,-63.1809,92.67,92.67,92.67,Departamento de Epidemiologia,Municipio,Norte,11,RO,10458.0,10458,10458,57.14,0.47,9.04,17.61,45.24,411.36,91.75,68.43,34.37,23.92,2.4,0.614,0.488,0.751,0.633,0,não,0.0675,A,0.8923,A,0.052,A,A,Inadimplente,1.0,Sim,Não,Não,40429.827,16916.071,32943.188,62845.461,153134.547,7692.963,160827.51,15599.18,"Administração, defesa, educação e saúde públicas e seguridade social",2020-04-27,2020-07-02,COVID Total,Outros
1101203,Ministro Andreazza,-11.196,-61.5174,376.02,376.02,376.02,II Delegacia Regional de Saúde,Municipio,Norte,11,RO,9660.0,9660,9660,51.97,0.54,12.76,26.14,47.9,448.38,92.14,87.48,19.99,4.71,2.85,0.638,0.518,0.776,0.647,0,não,0.0108,A,0.922,B,0.1075,A,B,Inadimplente,1.0,Sim,Não,Não,84837.055,11853.033,43979.409,65111.112,205780.608,12318.888,218099.496,20286.44,"Administração, defesa, educação e saúde públicas e seguridade social",2020-05-23,2020-06-27,COVID Total,Outros
1101302,Mirante da Serra,-11.029,-62.6696,285.96,285.96,285.96,I Delegacia Regional de Saúde,Municipio,Norte,11,RO,10947.0,10947,10947,53.4,0.6,10.94,24.22,47.79,527.79,96.64,80.66,20.58,10.98,3.16,0.643,0.494,0.8,0.673,0,não,0.0623,A,0.8257,A,0.9469,A,A,Inadimplente,1.0,Sim,Não,Não,63372.626,12406.048,56051.847,69837.533,201668.055,10728.783,212396.838,17327.2,"Administração, defesa, educação e saúde públicas e seguridade social",2020-05-03,2020-05-12,COVID Total,Outros
1101401,Monte Negro,-10.2458,-63.29,178.16,178.16,178.16,Departamento de Epidemiologia,Municipio,Norte,11,RO,15852.0,15852,15852,55.53,0.47,5.69,20.75,42.84,443.85,98.33,77.85,28.17,9.55,2.22,0.607,0.454,0.762,0.645,0,não,0.2522,A,0.9153,B,0.336,A,B,Inadimplente,3.0,Sim,Não,Não,88241.522,22384.035,51491.934,94664.117,256781.607,11476.528,268258.136,16573.47,"Administração, defesa, educação e saúde públicas e seguridade social",2020-05-19,2020-06-16,COVID Total,Outros
1101435,Nova União,-10.9068,-62.5564,280.37,280.37,280.37,I Delegacia Regional de Saúde,Municipio,Norte,11,RO,6970.0,6970,6970,50.46,0.47,8.65,27.74,53.24,352.24,90.86,76.07,20.48,11.65,2.35,0.587,0.442,0.753,0.608,0,não,0.1651,A,0.8497,A,0.009,A,A,Inadimplente,1.0,Sim,Não,Não,55705.397,3171.794,12543.909,46354.149,117775.249,3719.476,121494.725,15638.4,"Pecuária, inclusive apoio à pecuária",2020-06-07,,Contaminação sem óbitos,Outros
1101450,Parecis,-12.1754,-61.6032,455.2,455.2,455.2,II Delegacia Regional de Saúde,Municipio,Norte,11,RO,6074.0,6074,6074,50.08,0.52,16.04,25.68,57.31,343.73,87.26,78.77,20.36,9.93,3.46,0.617,0.485,0.8,0.604,0,não,0.0299,A,0.9404,B,0.2318,A,B,Inadimplente,2.0,Sim,Não,Não,46896.691,2962.156,11931.663,37202.082,98992.591,3400.89,102393.481,17343.07,"Pecuária, inclusive apoio à pecuária",2020-06-22,2020-07-09,COVID Total,Outros
1101468,Pimenteiras do Oeste,-13.4823,-61.0471,610.29,582.47,581.04,III Delegacia Regional de Saúde,Municipio,Norte,11,RO,2169.0,2169,2169,56.78,0.49,8.68,18.52,38.18,493.67,96.71,82.16,26.07,10.81,0.42,0.665,0.545,0.816,0.662,0,não,0.0033,A,0.9695,C,0.0073,A,C,Inadimplente,2.0,Sim,Não,Não,61867.851,3000.667,9580.591,21831.436,96280.545,2745.801,99026.346,41089.77,"Pecuária, inclusive apoio à pecuária",2020-05-25,2020-07-08,COVID Total,C/D Inadimplente
1101476,Primavera de Rondônia,-11.8295,-61.3153,443.14,443.14,443.14,II Delegacia Regional de Saúde,Municipio,Norte,11,RO,2856.0,2856,2856,51.77,0.52,11.45,25.19,46.87,442.61,96.29,86.03,22.7,7.54,4.75,0.641,0.512,0.799,0.645,0,não,0.0064,A,0.9986,C,0.019,A,C,Adimplente,0.0,Sim,Não,Não,25151.351,2218.268,8222.673,25796.453,61388.745,1967.106,63355.851,18573.98,"Administração, defesa, educação e saúde públicas e seguridade social",2020-05-01,,Contaminação sem óbitos,Outros
1101484,São Felipe D'Oeste,-11.9023,-61.5026,436.78,436.78,436.78,II Delegacia Regional de Saúde,Municipio,Norte,11,RO,5172.0,5172,5172,47.0,0.47,9.74,23.32,50.17,368.24,92.1,90.8,17.46,6.69,3.15,0.649,0.571,0.78,0.615,0,não,0.0,n.d.,3.8173,C,0.1796,A,n.d.,Inadimplente,1.0,Sim,Não,Não,32278.818,2179.301,14435.534,38238.338,87131.992,4005.549,91137.542,15204.8,"Administração, defesa, educação e saúde públicas e seguridade social",2020-05-08,,Contaminação sem óbitos,Outros
1101492,São Francisco do Guaporé,-12.052,-63.568,367.76,367.76,367.76,I Delegacia Regional de Saúde,Municipio,Norte,11,RO,20266.0,20266,20266,52.4,0.56,12.21,24.53,47.5,477.9,96.26,70.72,21.74,16.21,1.6,0.611,0.462,0.751,0.657,0,não,0.0414,A,0.8614,A,0.0304,A,A,Adimplente,0.0,Sim,Não,Não,132787.263,15362.014,64068.279,112060.635,324278.191,17134.446,341412.637,17335.87,"Pecuária, inclusive apoio à pecuária",2020-05-19,2020-05-23,COVID Total,Outros
1101500,Seringueiras,-11.8055,-63.0182,352.03,352.03,352.03,I Delegacia Regional de Saúde,Municipio,Norte,11,RO,11856.0,11856,11856,51.39,0.63,16.05,29.55,59.77,441.13,96.9,74.41,24.4,15.87,3.45,0.598,0.427,0.779,0.644,0,não,0.0114,A,2.0298,C,0.0044,A,C,Adimplente,0.0,Sim,Não,Não,88836.41,11213.772,48594.618,77251.207,225896.006,14640.661,240536.668,19010.25,"Administração, defesa, educação e saúde públicas e seguridade social",2020-05-20,,Contaminação sem óbitos,Outros
1101559,Teixeirópolis,-10.9056,-62.242,299.78,299.78,299.78,I Delegacia Regional de Saúde,Municipio,Norte,11,RO,4308.0,4308,4308,49.94,0.43,6.75,17.73,33.7,464.45,95.05,89.33,16.29,2.88,1.09,0.643,0.498,0.818,0.653,0,não,0.0,n.d.,0.8426,A,0.0055,A,n.d.,Inadimplente,1.0,Sim,Não,Não,34815.393,3774.549,10532.692,31417.164,80539.799,2874.775,83414.574,16916.36,"Pecuária, inclusive apoio à pecuária",2020-06-06,,Contaminação sem óbitos,Outros
1101609,Theobroma,-10.2483,-62.3538,236.87,236.87,236.87,I Delegacia Regional de Saúde,Municipio,Norte,11,RO,10444.0,10444,10444,51.48,0.57,20.54,32.94,54.11,382.6,96.15,71.98,21.4,7.32,2.0,0.589,0.434,0.757,0.622,0,não,0.3902,A,0.8687,A,0.0631,A,A,Inadimplente,4.0,Sim,Não,Não,89676.02,4778.594,16162.36,69368.151,179985.125,4831.655,184816.781,16283.42,"Pecuária, inclusive apoio à pecuária",2020-05-07,,Contaminação sem óbitos,Outros
1101708,Urupá,-11.1261,-62.3639,312.21,312.21,312.21,I Delegacia Regional de Saúde,Municipio,Norte,11,RO,11467.0,11467,11467,48.11,0.51,13.61,26.03,50.6,380.5,93.24,81.59,19.71,9.73,2.82,0.609,0.471,0.772,0.621,0,não,0.0395,A,0.8939,A,0.332,A,A,Inadimplente,1.0,Sim,Não,Não,72653.627,8608.22,43432.802,74660.456,199355.104,9634.362,208989.466,15946.09,"Administração, defesa, educação e saúde públicas e seguridade social",2020-04-23,,Contaminação sem óbitos,Outros
1101757,Vale do Anari,-9.86215,-62.1876,224.28,224.28,224.28,Departamento de Epidemiologia,Municipio,Norte,11,RO,11204.0,11204,11204,53.27,0.57,17.42,32.09,57.32,394.02,93.37,62.07,22.22,22.2,3.4,0.584,0.421,0.756,0.626,0,não,0.1689,A,0.8652,A,0.3294,A,A,Adimplente,0.0,Sim,Não,Não,48686.895,5154.479,23445.664,67002.116,144289.154,6487.954,150777.108,13523.82,"Administração, defesa, educação e saúde públicas e seguridade social",2020-05-01,2020-05-17,COVID Total,Outros
1101807,Vale do Paraíso,-10.4465,-62.1352,269.38,269.38,269.38,I Delegacia Regional de Saúde,Municipio,Norte,11,RO,6825.0,6825,6825,47.61,0.59,15.79,30.25,55.91,432.03,96.71,83.3,14.29,5.26,2.28,0.627,0.485,0.792,0.641,0,não,0.0027,A,0.8711,A,0.027,A,A,Adimplente,0.0,Sim,Não,Não,69289.887,3206.803,14771.404,49392.508,136660.602,4067.806,140728.408,17488.31,"Pecuária, inclusive apoio à pecuária",2020-05-19,,Contaminação sem óbitos,Outros
1200013,Acrelândia,-9.82581,-66.8972,102.9,102.9,102.9,Acre,Municipio,Norte,12,AC,15256.0,15256,15256,62.68,0.54,18.09,36.56,64.18,303.76,93.87,55.29,41.61,23.82,2.54,0.604,0.466,0.808,0.584,0,não,0.0,n.d.,0.0,n.d.,0.0,n.d.,n.d.,Inadimplente,11.0,Sim,Não,Não,71991.989,7671.506,47349.787,91935.23,218948.512,10678.923,229627.434,15984.09,"Administração, defesa, educação e saúde públicas e seguridade social",2020-03-29,2020-05-04,COVID Total,Outros
1200054,Assis Brasil,-10.9298,-69.5738,218.79,218.79,218.79,Brasiléia,Municipio,Norte,12,AC,7417.0,7417,7417,66.61,0.61,30.66,44.09,66.28,291.33,80.31,40.79,47.0,28.79,6.49,0.588,0.456,0.77,0.578,0,não,0.0,n.d.,0.9667,C,1.951,C,n.d.,Inadimplente,5.0,Sim,Não,Não,22123.788,2879.049,14549.601,49385.958,88938.395,2802.198,91740.594,13132.06,"Administração, defesa, educação e saúde públicas e seguridade social",2020-05-01,2020-05-19,COVID Total,Outros
1200104,Brasiléia,-10.995,-68.7497,151.99,151.99,151.99,Brasiléia,Municipio,Norte,12,AC,26278.0,26278,26278,58.65,0.58,17.09,35.22,59.8,376.07,91.48,53.24,41.11,20.4,3.68,0.614,0.485,0.77,0.619,0,não,0.1939,A,1.0012,C,1.9607,C,C,Adimplente,0.0,Sim,Não,Não,72910.693,27329.965,103102.284,156131.287,359474.23,28436.548,387910.777,15663.67,"Administração, defesa, educação e saúde públicas e seguridade social",2020-05-09,2020-05-23,COVID Total,Outros
1200138,Bujari,-9.81528,-67.955,22.81,22.81,22.81,Acre,Municipio,Norte,12,AC,10266.0,10266,10266,64.07,0.58,20.68,37.61,63.43,340.95,81.12,41.89,50.25,23.51,4.83,0.589,0.439,0.772,0.603,0,não,0.0,n.d.,0.0,n.d.,0.0,n.d.,n.d.,Inadimplente,9.0,Sim,Não,Não,70747.864,3491.869,18691.004,62898.793,155829.53,2468.778,158298.308,16380.21,"Administração, defesa, educação e saúde públicas e seguridade social",2020-04-08,2020-05-29,COVID Total,Outros
1200179,Capixaba,-10.566,-67.686,67.44,67.44,67.44,Acre,Municipio,Norte,12,AC,11733.0,11733,11733,68.72,0.56,17.89,35.0,59.5,336.17,86.19,30.45,48.48,31.13,3.76,0.575,0.398,0.794,0.601,0,não,0.0,n.d.,0.9301,B,0.0,n.d.,n.d.,Inadimplente,10.0,Sim,Não,Não,70954.324,4235.383,21445.091,69551.163,166185.961,4800.305,170986.267,15354.37,"Administração, defesa, educação e saúde públicas e seguridade social",2020-05-08,2020-05-28,COVID Total,Outros
1200203,Cruzeiro do Sul,-7.62762,-72.6756,593.52,593.52,593.52,Cruzeiro do Sul,Municipio,Norte,12,AC,88376.0,88376,88376,67.66,0.64,18.08,34.51,56.4,450.06,79.14,38.88,45.0,39.12,3.39,0.664,0.582,0.776,0.648,16,sim,0.2419,A,1.0074,C,1.1533,C,C,Adimplente,0.0,Sim,Não,Não,67009.606,83785.535,493892.362,515509.032,1160196.535,127525.562,1287722.097,15585.7,"Administração, defesa, educação e saúde públicas e seguridade social",2020-04-13,2020-05-13,COVID Total,Outros
1200252,Epitaciolândia,-11.0188,-68.7341,152.86,152.86,152.86,Brasiléia,Municipio,Norte,12,AC,18411.0,18411,18411,58.9,0.6,13.02,29.44,52.89,467.83,89.66,45.68,38.98,29.37,2.53,0.653,0.553,0.771,0.654,0,não,0.3014,A,0.9577,C,0.0262,A,C,Adimplente,0.0,Sim,Não,Não,45564.969,16772.041,195280.909,106236.648,363854.567,72056.312,435910.879,25139.04,Comércio e reparação de veículos automotores e motocicletas,2020-05-07,2020-06-02,COVID Total,Outros
1200302,Feijó,-8.17054,-70.351,342.38,342.38,342.38,Cruzeiro do Sul,Municipio,Norte,12,AC,34780.0,34780,34780,82.09,0.68,36.51,54.93,75.28,259.43,69.53,26.02,62.56,36.26,5.58,0.539,0.388,0.723,0.559,0,não,0.0,n.d.,0.0,n.d.,-0.0141,C,n.d.,Inadimplente,6.0,Sim,Não,Não,67065.683,12558.022,61554.874,197470.346,338648.924,12221.349,350870.274,10842.72,"Administração, defesa, educação e saúde públicas e seguridade social",2020-05-02,2020-05-29,COVID Total,Outros
1200328,Jordão,-9.43091,-71.8974,450.51,450.51,450.51,Cruzeiro do Sul,Municipio,Norte,12,AC,8317.0,8317,8317,105.47,0.71,49.17,69.69,81.69,178.03,46.28,8.66,68.55,64.96,4.21,0.469,0.283,0.731,0.499,0,não,0.0611,A,0.9924,C,0.086,A,C,Inadimplente,6.0,Sim,Não,Não,11981.05,1682.821,8551.456,54928.983,77144.31,1483.865,78628.174,10006.13,"Administração, defesa, educação e saúde públicas e seguridade social",2020-06-05,2020-07-12,COVID Total,C/D Inadimplente
1200336,Mâncio Lima,-7.61657,-72.8997,616.26,616.26,616.26,Cruzeiro do Sul,Municipio,Norte,12,AC,18977.0,18977,18977,75.06,0.61,28.99,45.68,68.67,295.5,80.26,28.19,50.03,47.93,4.12,0.625,0.546,0.77,0.58,0,não,0.4101,A,0.9986,C,0.4151,A,C,Adimplente,0.0,Sim,Não,Não,39397.011,6997.259,27457.646,116559.996,190411.912,4006.141,194418.053,10855.28,"Administração, defesa, educação e saúde públicas e seguridade social",2020-04-29,2020-06-02,COVID Total,Outros
1200344,Manoel Urbano,-8.83291,-69.2679,202.99,202.99,202.99,Acre,Municipio,Norte,12,AC,9459.0,9459,9459,78.87,0.59,25.44,38.12,64.89,307.7,80.41,30.12,55.35,31.93,4.56,0.551,0.373,0.767,0.586,0,não,0.5886,A,5.9241,C,-0.2813,C,C,Adimplente,0.0,Sim,Não,Não,21252.723,26512.638,21442.717,60709.428,129917.505,5681.165,135598.67,15259.81,"Administração, defesa, educação e saúde públicas e seguridade social",2020-05-30,2020-06-30,COVID Total,Outros
1200351,Marechal Thaumaturgo,-8.93898,-72.7997,557.73,557.73,557.73,Cruzeiro do Sul,Municipio,Norte,12,AC,18867.0,18867,18867,97.78,0.59,39.31,63.82,82.84,157.27,50.76,9.33,63.63,40.2,4.01,0.501,0.361,0.726,0.479,0,não,0.0829,A,0.9461,B,0.3796,A,B,Adimplente,0.0,Sim,Não,Não,42074.811,4703.694,21655.358,123245.392,191679.255,3664.047,195343.302,10914.86,"Administração, defesa, educação e saúde públicas e seguridade social",2020-05-12,2020-06-25,COVID Total,Outros
1200385,Plácido de Castro,-10.2806,-67.1371,82.54,82.54,82.54,Acre,Municipio,Norte,12,AC,19761.0,19761,19761,66.37,0.55,18.76,36.79,62.29,321.16,91.46,44.68,43.73,30.89,2.93,0.622,0.517,0.786,0.593,0,não,0.0,n.d.,0.0,n.d.,0.0,n.d.,n.d.,Inadimplente,11.0,Sim,Não,Não,64311.777,12357.712,39248.774,116565.411,232483.675,8714.627,241198.302,13030.7,"Administração, defesa, educação e saúde públicas e seguridade social",2020-04-06,2020-04-15,COVID Total,Outros
1200393,Porto Walter,-8.26323,-72.7537,573.67,573.67,573.67,Cruzeiro do Sul,Municipio,Norte,12,AC,11982.0,11982,11982,106.25,0.61,34.92,53.25,76.87,204.19,44.36,17.37,68.08,39.53,3.11,0.532,0.397,0.726,0.521,0,não,0.0377,A,0.0,n.d.,0.0801,A,n.d.,Adimplente,0.0,Sim,Não,Não,17904.653,2641.92,13982.11,75407.778,109936.461,2772.677,112709.138,9927.7,"Administração, defesa, educação e saúde públicas e seguridade social",2020-05-26,,Contaminação sem óbitos,Outros
1200401,Rio Branco,-9.97499,-67.8243,0.0,0.0,0.0,Acre,Capital,Norte,12,AC,407319.0,407319,407319,50.39,0.59,4.85,14.38,35.25,744.67,94.09,62.1,39.42,18.43,1.64,0.727,0.661,0.798,0.729,0,não,0.2732,A,0.8521,A,0.0389,A,A,Adimplente,0.0,Sim,Não,Não,165637.122,731315.017,3817930.099,2364459.264,7079341.502,1072152.079,8151493.581,21258.68,Demais serviços,2020-03-17,2020-04-06,COVID Total,Outros
1200427,Rodrigues Alves,-7.73864,-72.661,586.67,586.67,586.67,Cruzeiro do Sul,Municipio,Norte,12,AC,18930.0,18930,18930,85.52,0.63,40.9,60.87,78.78,200.58,71.48,10.89,57.15,52.64,4.06,0.567,0.477,0.736,0.518,0,não,0.0511,A,0.0,n.d.,0.0608,A,n.d.,Inadimplente,4.0,Sim,Não,Não,41639.374,4330.874,19250.228,117220.013,182440.489,2566.981,185007.47,10309.69,"Administração, defesa, educação e saúde públicas e seguridade social",2020-05-12,2020-05-30,COVID Total,Outros
1200435,Santa Rosa do Purus,-9.44652,-70.4902,298.04,298.04,298.04,Acre,Municipio,Norte,12,AC,6540.0,6540,6540,92.26,0.78,63.05,73.4,79.49,201.58,65.93,28.21,79.03,39.87,5.44,0.517,0.34,0.781,0.519,0,não,0.0,n.d.,0.0,n.d.,0.0,n.d.,n.d.,Inadimplente,5.0,Sim,Não,Não,13669.287,1580.655,8449.666,45976.276,69675.883,1595.272,71271.155,11439.99,"Administração, defesa, educação e saúde públicas e seguridade social",2020-05-08,2020-06-06,COVID Total,Outros
1200450,Senador Guiomard,-10.1497,-67.7362,21.69,21.69,21.69,Acre,Municipio,Norte,12,AC,23024.0,23024,23024,61.95,0.55,8.29,23.3,48.99,455.06,92.31,52.88,44.42,29.76,3.0,0.64,0.513,0.786,0.649,0,não,0.6716,B,0.0,n.d.,0.2382,A,n.d.,Inadimplente,6.0,Sim,Não,Não,95354.361,20501.901,80277.338,141131.372,337264.972,22493.486,359758.458,16692.58,"Administração, defesa, educação e saúde públicas e seguridade social",2020-04-19,2020-05-28,COVID Total,Outros
1200500,Sena Madureira,-9.06596,-68.6571,136.23,136.23,136.23,Acre,Municipio,Norte,12,AC,45848.0,45848,45848,64.85,0.54,21.19,37.59,58.9,320.8,82.48,36.48,52.76,40.8,3.71,0.603,0.456,0.81,0.593,0,não,0.0,n.d.,0.0,n.d.,0.0,n.d.,n.d.,Inadimplente,5.0,Sim,Não,Não,109486.127,21097.495,97618.078,254610.91,482812.61,17699.554,500512.165,11602.31,"Administração, defesa, educação e saúde públicas e seguridade social",2020-05-04,2020-05-19,COVID Total,Outros
1200609,Tarauacá,-8.15697,-70.7722,381.62,381.62,381.62,Cruzeiro do Sul,Municipio,Norte,12,AC,42567.0,42567,42567,85.98,0.65,34.59,54.76,73.09,251.53,60.4,19.3,64.5,41.95,4.82,0.539,0.392,0.72,0.554,0,não,0.4407,A,0.947,B,0.0507,A,B,Adimplente,0.0,Sim,Não,Não,84916.648,15358.095,95997.838,255061.777,451334.358,19503.756,470838.115,11763.89,"Administração, defesa, educação e saúde públicas e seguridade social",2020-05-02,2020-05-07,COVID Total,Outros
1200708,Xapuri,-10.6516,-68.4969,105.24,105.24,105.24,Brasiléia,Municipio,Norte,12,AC,19323.0,19323,19323,64.36,0.58,19.07,33.64,58.29,382.24,86.75,51.78,46.94,17.68,5.96,0.599,0.448,0.773,0.621,0,não,0.0751,A,0.9764,C,1.976,C,C,Inadimplente,6.0,Sim,Não,Não,67178.145,8553.538,39588.148,108327.118,223646.949,7650.123,231297.072,12726.81,"Administração, defesa, educação e saúde públicas e seguridade social",2020-04-29,2020-05-29,COVID Total,C/D Inadimplente
1200807,Porto Acre,-9.58138,-67.5478,53.23,53.23,53.23,Acre,Municipio,Norte,12,AC,18504.0,18504,18504,67.08,0.6,21.4,41.47,66.0,319.71,84.45,40.21,50.45,38.64,3.53,0.576,0.418,0.771,0.593,0,não,0.2319,A,0.9438,B,0.0683,A,B,Adimplente,0.0,Sim,Não,Não,79015.251,5937.115,31899.961,106769.951,223622.277,6300.579,229922.856,13169.3,"Administração, defesa, educação e saúde públicas e seguridade social",2020-03-29,2020-05-27,COVID Total,Outros
1300029,Alvarães,-3.22727,-64.8007,530.78,530.78,530.78,Triângulo,Municipio,Norte,13,AM,16041.0,16041,16041,91.67,0.58,30.88,60.76,81.17,178.67,48.93,25.53,72.73,44.97,3.89,0.527,0.377,0.778,0.499,0,não,0.0154,A,0.947,B,2.4954,C,C,Inadimplente,9.0,Sim,Não,Não,56928.943,6211.876,23801.082,70149.323,157091.225,2001.514,159092.738,10000.8,"Administração, defesa, educação e saúde públicas e seguridade social",2020-05-04,2020-05-13,COVID Total,C/D Inadimplente
1300060,Amaturá,-3.37455,-68.2005,908.48,735.11,735.11,Alto Solimões,Municipio,Norte,13,AM,11536.0,11536,11536,74.76,0.64,42.81,62.64,82.44,178.69,66.65,37.25,69.07,26.95,8.73,0.56,0.455,0.773,0.499,0,não,0.0065,A,0.9737,C,0.0991,A,C,Adimplente,0.0,Sim,Não,Não,13060.141,2998.78,13974.291,49503.844,79537.056,1251.859,80788.914,7186.35,"Administração, defesa, educação e saúde públicas e seguridade social",2020-04-24,2020-05-03,COVID Total,Outros
1300086,Anamã,-3.56697,-61.3963,160.58,160.58,160.58,Rio Negro e Solimões,Municipio,Norte,13,AM,13614.0,13614,13614,74.76,0.58,32.44,51.08,71.21,226.82,58.47,46.79,67.42,38.88,7.02,0.594,0.526,0.741,0.537,0,não,0.0065,A,0.9394,B,0.2255,A,B,Inadimplente,3.0,Sim,Não,Não,33517.501,4001.664,17373.88,50980.946,105873.991,2234.693,108108.684,8330.15,"Administração, defesa, educação e saúde públicas e seguridade social",2020-04-14,,Contaminação sem óbitos,Outros
1300102,Anori,-3.74603,-61.6575,194.56,194.56,194.56,Rio Negro e Solimões,Municipio,Norte,13,AM,21010.0,21010,21010,74.03,0.6,32.25,52.29,74.62,229.94,66.86,52.94,65.45,29.24,3.44,0.561,0.433,0.757,0.54,0,não,0.5587,A,0.0,n.d.,2.0672,C,n.d.,Inadimplente,4.0,Sim,Não,Não,83189.122,5239.277,24149.076,77561.523,190138.999,2712.779,192851.778,9549.01,"Administração, defesa, educação e saúde públicas e seguridade social",2020-03-29,2020-05-03,COVID Total,Outros
1300144,Apuí,-7.19409,-59.896,453.38,453.38,453.38,Amazonas,Municipio,Norte,13,AM,21973.0,21973,21973,51.3,0.56,16.56,26.84,56.97,380.62,86.73,46.5,44.68,41.58,3.09,0.637,0.54,0.772,0.621,0,não,0.6327,B,0.9036,B,0.5224,A,B,Inadimplente,1.0,Sim,Não,Não,55955.177,11571.515,40217.188,79584.057,187327.936,6131.919,193459.855,9037.65,"Administração, defesa, educação e saúde públicas e seguridade social",2020-05-08,,Contaminação sem óbitos,Outros
1300201,Atalaia do Norte,-4.37055,-70.1967,1137.57,675.88,675.88,Alto Solimões,Municipio,Norte,13,AM,19921.0,19921,19921,72.92,0.65,44.75,63.67,83.46,159.21,36.29,17.52,69.88,44.58,8.38,0.45,0.259,0.733,0.481,0,não,0.0,n.d.,0.0,n.d.,0.0,n.d.,n.d.,Inadimplente,8.0,Sim,Não,Não,24584.734,4310.233,20756.626,88957.015,138608.607,2533.738,141142.346,7407.49,"Administração, defesa, educação e saúde públicas e seguridade social",2020-04-30,2020-05-30,COVID Total,Outros
1300300,Autazes,-3.58574,-59.1256,112.16,112.16,112.16,Entorno de Manaus,Municipio,Norte,13,AM,39565.0,39565,39565,80.29,0.59,34.3,51.58,73.21,228.43,57.01,24.55,67.07,54.16,5.47,0.577,0.446,0.799,0.539,0,não,0.0491,A,0.9294,B,0.0,n.d.,n.d.,Inadimplente,7.0,Sim,Não,Não,82954.864,13489.463,62276.74,159753.693,318474.76,9433.369,327908.129,8527.28,"Administração, defesa, educação e saúde públicas e seguridade social",2020-04-20,2020-04-26,COVID Total,Outros
1300409,Barcelos,-0.983373,-62.9311,401.15,401.15,401.15,Amazonas,Municipio,Norte,13,AM,27502.0,27502,27502,61.28,0.74,47.37,60.97,74.74,237.29,49.81,37.94,72.88,14.04,5.33,0.5,0.315,0.728,0.545,0,não,0.2053,A,0.9128,B,0.0,n.d.,n.d.,Adimplente,0.0,Sim,Não,Não,13512.319,5976.098,31949.184,105092.154,156529.755,3942.085,160471.839,5784.23,"Administração, defesa, educação e saúde públicas e seguridade social",2020-04-22,2020-04-22,COVID Total,Outros
1300508,Barreirinha,-2.79886,-57.0679,329.88,329.88,266.1,Baixo Amazonas,Municipio,Norte,13,AM,32041.0,32041,32041,94.49,0.6,46.23,68.75,83.65,148.28,55.14,35.69,74.59,47.48,6.78,0.574,0.522,0.774,0.469,0,não,0.0379,A,0.89,A,0.3742,A,A,Inadimplente,5.0,Sim,Não,Não,50105.919,7933.608,39118.002,137693.047,234850.576,4681.147,239531.723,7594.06,"Administração, defesa, educação e saúde públicas e seguridade social",2020-05-02,2020-05-06,COVID Total,Outros
1300607,Benjamin Constant,-4.37768,-70.0342,1119.77,668.4,668.4,Alto Solimões,Municipio,Norte,13,AM,42984.0,42984,42984,81.57,0.56,28.08,52.87,78.14,211.1,53.48,22.34,71.69,43.94,7.63,0.574,0.471,0.763,0.526,0,não,0.2738,A,0.8986,A,2.4633,C,C,Inadimplente,2.0,Sim,Não,Não,27254.35,12300.247,58984.344,172099.823,270638.765,9025.265,279664.029,6766.77,"Administração, defesa, educação e saúde públicas e seguridade social",2020-04-22,2020-04-30,COVID Total,C/D Inadimplente
1300631,Beruri,-3.89874,-61.3616,172.21,172.21,172.21,Rio Negro e Solimões,Municipio,Norte,13,AM,19679.0,19679,19679,94.16,0.65,43.29,64.14,78.54,193.4,54.61,21.95,74.68,31.46,5.52,0.506,0.346,0.731,0.512,0,não,0.1283,A,0.9014,B,4.9997,C,C,Inadimplente,7.0,Sim,Não,Não,14751.887,5552.344,26953.613,91162.497,138420.341,2984.07,141404.411,7450.96,"Administração, defesa, educação e saúde públicas e seguridade social",2020-04-21,2020-04-21,COVID Total,C/D Inadimplente
1300680,Boa Vista do Ramos,-2.97409,-57.5873,270.73,270.73,270.73,Baixo Amazonas,Municipio,Norte,13,AM,19207.0,19207,19207,83.5,0.59,40.05,61.77,80.82,175.55,58.8,36.65,75.22,48.58,6.47,0.565,0.484,0.75,0.496,0,não,0.2576,A,0.9287,B,1.5224,C,C,Inadimplente,5.0,Sim,Não,Não,18685.488,4345.948,24132.547,75252.366,122416.349,3170.438,125586.786,6794.72,"Administração, defesa, educação e saúde públicas e seguridade social",2020-05-03,2020-05-17,COVID Total,C/D Inadimplente
1300706,Boca do Acre,-8.74232,-67.3919,1027.14,145.04,145.04,Amazonas,Municipio,Norte,13,AM,34308.0,34308,34308,69.58,0.63,27.28,49.75,72.02,288.42,67.42,28.18,51.55,36.89,5.15,0.588,0.455,0.777,0.576,0,não,0.1125,A,0.9829,C,1.4158,C,C,Inadimplente,6.0,Sim,Não,Não,84143.454,42267.299,85148.692,135899.671,347459.116,17140.776,364599.892,10668.3,"Administração, defesa, educação e saúde públicas e seguridade social",2020-03-26,2020-04-24,COVID Total,C/D Inadimplente
1300805,Borba,-4.39154,-59.5874,149.5,149.5,149.5,Amazonas,Municipio,Norte,13,AM,41161.0,41161,41161,79.27,0.64,36.98,56.26,76.04,219.83,54.65,30.97,74.85,46.19,7.01,0.56,0.425,0.776,0.532,0,não,0.0,n.d.,0.0,n.d.,0.0,n.d.,n.d.,Inadimplente,7.0,Sim,Não,Não,45988.728,10670.108,62585.271,167170.265,286414.371,9530.146,295944.517,7313.77,"Administração, defesa, educação e saúde públicas e seguridade social",2020-04-27,2020-04-29,COVID Total,Outros
1300839,Caapiranga,-3.31537,-61.2206,134.94,134.94,134.94,Rio Negro e Solimões,Municipio,Norte,13,AM,13081.0,13081,13081,73.19,0.58,29.67,50.44,71.15,235.49,29.69,43.17,65.16,32.74,5.03,0.569,0.436,0.775,0.544,0,não,0.0,n.d.,0.0,n.d.,0.0,n.d.,n.d.,Inadimplente,8.0,Sim,Não,Não,56210.019,4994.109,20011.351,59237.972,140453.452,1870.677,142324.128,11101.73,"Administração, defesa, educação e saúde públicas e seguridade social",2020-04-24,2020-05-11,COVID Total,Outros
1300904,Canutama,-6.52582,-64.3953,615.1,254.44,254.44,Amazonas,Municipio,Norte,13,AM,15629.0,15629,15629,59.59,0.61,34.1,57.35,77.38,206.44,73.71,53.11,51.74,33.58,6.93,0.53,0.379,0.752,0.522,0,não,0.0261,A,0.954,C,1.5633,C,C,Inadimplente,7.0,Sim,Não,Não,15963.636,3223.87,17626.37,63650.947,100464.823,2486.576,102951.399,6646.31,"Administração, defesa, educação e saúde públicas e seguridade social",2020-04-19,,Contaminação sem óbitos,C/D Inadimplente
1301001,Carauari,-4.88161,-66.9086,788.7,544.39,544.39,Triângulo,Municipio,Norte,13,AM,28294.0,28294,28294,81.66,0.54,23.92,48.31,75.35,222.32,64.62,31.13,59.13,38.15,3.93,0.549,0.416,0.745,0.534,0,não,0.0765,A,0.9504,C,0.0954,A,C,Adimplente,0.0,Sim,Não,Não,86138.714,14999.113,63337.094,112924.44,277399.361,8095.612,285494.973,10074.99,"Administração, defesa, educação e saúde públicas e seguridade social",2020-04-16,2020-04-16,COVID Total,Outros
1301100,Careiro,-3.76803,-60.369,81.88,81.88,81.88,Entorno de Manaus,Municipio,Norte,13,AM,37869.0,37869,37869,68.04,0.66,41.27,60.88,76.77,197.06,56.5,32.3,68.87,53.81,7.64,0.557,0.431,0.779,0.515,0,não,0.0431,A,1.0289,C,0.1597,A,C,Adimplente,0.0,Sim,Não,Não,47797.423,12962.717,54503.433,148470.04,263733.613,8647.485,272381.098,7283.11,"Administração, defesa, educação e saúde públicas e seguridade social",2020-04-11,2020-04-15,COVID Total,Outros
1301159,Careiro da Várzea,-3.314,-59.5557,56.06,56.06,56.06,Entorno de Manaus,Municipio,Norte,13,AM,30225.0,30225,30225,62.49,0.57,30.36,54.97,75.23,207.18,14.95,16.07,49.87,72.6,3.89,0.568,0.45,0.779,0.523,0,não,0.0379,A,1.0103,C,0.0991,A,C,Inadimplente,3.0,Sim,Não,Não,164719.175,9065.312,27368.094,108840.179,309992.761,3225.485,313218.245,10730.33,"Agricultura, inclusive apoio à agricultura e a pós colheita",2020-03-31,2020-05-15,COVID Total,C/D Inadimplente
1301209,Coari,-4.09412,-63.1441,363.14,363.14,363.14,Amazonas,Municipio,Norte,13,AM,85097.0,85097,85097,68.5,0.64,21.98,40.38,63.59,347.2,32.29,51.77,65.54,28.24,3.56,0.586,0.425,0.78,0.606,0,não,0.0,n.d.,0.0,n.d.,0.0,n.d.,n.d.,Inadimplente,4.0,Sim,Não,Não,142083.948,405494.766,341243.18,377746.998,1266568.893,54052.573,1320621.465,15580.35,"Administração, defesa, educação e saúde públicas e seguridade social",2020-04-17,2020-04-25,COVID Total,Outros
1301308,Codajás,-3.83053,-62.0658,240.34,240.34,240.34,Amazonas,Municipio,Norte,13,AM,28637.0,28637,28637,70.28,0.61,29.32,54.32,77.17,239.64,63.71,47.59,68.04,17.27,4.8,0.563,0.421,0.775,0.546,0,não,0.0855,A,1.2396,C,0.6837,A,C,Inadimplente,5.0,Sim,Não,Não,302524.946,9956.201,39084.757,107844.906,459410.811,4660.422,464071.233,16683.01,"Produção florestal, pesca e aquicultura",2020-04-24,2020-05-08,COVID Total,C/D Inadimplente
1301407,Eirunepé,-6.65677,-69.8662,1159.34,431.97,431.97,Triângulo,Municipio,Norte,13,AM,35273.0,35273,35273,79.67,0.62,32.2,55.41,74.5,241.86,52.29,23.75,53.4,37.26,4.5,0.563,0.431,0.756,0.548,0,não,0.011,A,0.968,C,0.2695,A,C,Inadimplente,5.0,Sim,Não,Não,207781.273,12760.682,59966.596,145158.946,425667.497,8057.063,433724.561,12431.91,"Produção florestal, pesca e aquicultura",2020-05-01,,Contaminação sem óbitos,C/D Inadimplente
1301506,Envira,-7.43789,-70.0281,1207.35,371.82,371.82,Triângulo,Municipio,Norte,13,AM,,20033,20033,82.08,0.64,35.87,57.67,80.07,204.98,44.82,24.55,55.43,43.97,6.45,0.509,0.349,0.727,0.521,0,não,0.1995,A,0.9601,C,1.4954,C,C,Inadimplente,10.0,Sim,Não,Não,37633.723,5557.06,25040.94,78220.039,146451.762,2228.6,148680.362,7627.76,"Administração, defesa, educação e saúde públicas e seguridade social",2020-07-06,,Contaminação sem óbitos,C/D Inadimplente
1301605,Fonte Boa,-2.52342,-66.0942,677.7,677.7,677.7,Triângulo,Municipio,Norte,13,AM,17609.0,17609,17609,80.4,0.62,37.8,59.94,78.03,200.4,67.64,31.25,72.65,28.37,8.0,0.53,0.4,0.719,0.518,0,não,0.0533,A,0.9782,C,0.8872,A,C,Inadimplente,3.0,Sim,Não,Não,23046.281,6692.794,36628.694,95739.001,162106.77,5219.863,167326.633,8507.12,"Administração, defesa, educação e saúde públicas e seguridade social",2020-04-29,2020-05-09,COVID Total,C/D Inadimplente
1301654,Guajará,-7.53797,-72.5907,1475.48,589.72,589.72,Amazonas,Municipio,Norte,13,AM,16678.0,16678,16678,82.74,0.74,51.48,67.87,83.14,191.04,62.11,15.92,66.36,70.08,4.74,0.532,0.387,0.762,0.51,0,não,0.2113,A,0.9078,B,0.8428,A,B,Inadimplente,5.0,Sim,Não,Não,18609.624,4076.131,21847.868,68315.861,112849.485,2968.154,115817.639,7088.42,"Administração, defesa, educação e saúde públicas e seguridade social",2020-05-14,2020-05-21,COVID Total,Outros
1301704,Humaitá,-7.51171,-63.0327,591.38,168.53,168.53,Amazonas,Municipio,Norte,13,AM,55080.0,55080,55080,66.1,0.66,25.86,41.89,63.98,382.13,77.32,58.58,56.12,26.98,4.84,0.605,0.451,0.791,0.621,0,não,0.0117,A,0.8849,A,0.1185,A,A,Inadimplente,6.0,Sim,Não,Não,122535.664,31897.774,169607.278,197756.552,521797.268,33412.813,555210.082,10400.5,"Administração, defesa, educação e saúde públicas e seguridade social",2020-04-26,2020-05-20,COVID Total,Outros
1301803,Ipixuna,-7.04791,-71.6934,1364.36,535.66,535.66,Amazonas,Municipio,Norte,13,AM,29689.0,29689,29689,91.7,0.58,39.53,68.07,86.43,154.54,41.52,15.3,68.8,53.7,6.85,0.481,0.302,0.772,0.476,0,não,0.0,n.d.,0.0,n.d.,0.0,n.d.,n.d.,Inadimplente,8.0,Sim,Não,Não,11557.866,3940.222,20010.29,102261.43,137769.808,2088.031,139857.838,4942.15,"Administração, defesa, educação e saúde públicas e seguridade social",2020-06-22,,Contaminação sem óbitos,Outros
1301852,Iranduba,-3.27479,-60.19,25.55,25.55,25.55,Entorno de Manaus,Municipio,Norte,13,AM,48296.0,48296,48296,70.25,0.56,16.69,34.86,59.84,349.23,70.95,55.44,62.14,30.34,3.62,0.613,0.476,0.799,0.607,0,não,0.0022,A,0.9044,B,0.4027,A,B,Inadimplente,7.0,Sim,Não,Não,176758.606,92017.927,179667.393,220480.362,668924.288,35444.598,704368.885,14857.91,"Administração, defesa, educação e saúde públicas e seguridade social",2020-04-05,2020-04-14,COVID Total,Outros
1301902,Itacoatiara,-3.13861,-58.4449,175.03,175.03,175.03,Médio Amazonas,Municipio,Norte,13,AM,101337.0,101337,101337,68.47,0.59,17.45,36.6,58.58,373.71,78.88,62.11,59.14,24.77,3.78,0.644,0.534,0.811,0.618,104,sim,0.4281,A,0.953,C,5.7856,C,C,Inadimplente,5.0,Sim,Não,Não,468832.279,116310.944,730759.635,422933.725,1738836.582,239978.656,1978815.238,19817.09,Demais serviços,2020-03-29,2020-04-17,COVID Total,C/D Inadimplente
1301951,Itamarati,-6.43852,-68.2437,982.94,395.94,395.94,Triângulo,Municipio,Norte,13,AM,7851.0,7851,7851,81.16,0.8,55.51,74.2,88.6,214.95,52.1,19.03,59.27,39.48,6.16,0.477,0.266,0.772,0.529,0,não,0.3296,A,1.237,C,7.8399,C,C,Inadimplente,5.0,Sim,Não,Não,28781.4,3905.348,16983.772,41614.593,91285.112,2487.115,93772.228,11536.94,"Administração, defesa, educação e saúde públicas e seguridade social",2020-05-13,2020-06-10,COVID Total,C/D Inadimplente
1302009,Itapiranga,-2.74081,-58.0293,225.15,225.15,225.15,Médio Amazonas,Municipio,Norte,13,AM,9148.0,9148,9148,71.05,0.67,27.79,49.37,69.41,321.94,82.78,48.43,61.75,37.49,4.03,0.654,0.594,0.792,0.594,0,não,0.2271,A,1.5414,C,9.2731,C,C,Inadimplente,10.0,Sim,Não,Não,40929.6,4226.107,19485.995,40341.797,104983.499,2592.915,107576.414,11789.2,"Administração, defesa, educação e saúde públicas e seguridade social",2020-04-26,2020-04-29,COVID Total,C/D Inadimplente
1302108,Japurá,-1.88237,-66.9291,779.59,779.59,779.59,Triângulo,Municipio,Norte,13,AM,2755.0,2755,2755,77.78,0.59,22.55,52.07,80.03,248.6,48.06,31.51,73.99,32.9,4.23,0.522,0.345,0.748,0.552,0,não,0.0008,A,0.9014,B,2.9992,C,C,Inadimplente,5.0,Sim,Não,Não,16775.964,2233.518,11253.545,30256.978,60520.005,1443.72,61963.725,14735.73,"Administração, defesa, educação e saúde públicas e seguridade social",2020-05-11,2020-06-22,COVID Total,C/D Inadimplente
1302207,Juruá,-3.48438,-66.0718,672.91,633.91,633.91,Triângulo,Municipio,Norte,13,AM,14712.0,14712,14712,83.71,0.6,32.23,56.2,76.19,227.39,47.97,27.35,67.17,44.39,4.1,0.522,0.376,0.704,0.538,0,não,0.0385,A,1.0208,C,-0.1037,C,C,Inadimplente,5.0,Sim,Não,Não,18547.879,3766.623,16973.371,57837.203,97125.076,2601.443,99726.52,7145.78,"Administração, defesa, educação e saúde públicas e seguridade social",2020-04-19,2020-05-04,COVID Total,C/D Inadimplente
1302306,Jutaí,-2.75814,-66.7595,749.35,738.58,738.58,Triângulo,Municipio,Norte,13,AM,14317.0,14317,14317,95.88,0.69,40.95,62.09,83.11,214.36,63.7,14.65,77.25,30.97,5.98,0.516,0.34,0.766,0.528,0,não,0.0,n.d.,0.0,n.d.,0.0,n.d.,n.d.,Inadimplente,6.0,Sim,Não,Não,82709.186,9075.103,40049.604,81311.281,213145.175,5133.726,218278.901,13794.17,"Administração, defesa, educação e saúde públicas e seguridade social",2020-04-16,2020-05-09,COVID Total,Outros
1302405,Lábrea,-7.26413,-64.7948,701.28,193.4,193.4,Amazonas,Municipio,Norte,13,AM,46069.0,46069,46069,73.3,0.59,33.28,52.41,73.07,227.62,48.22,41.87,59.85,27.65,4.81,0.531,0.374,0.744,0.538,0,não,0.0,n.d.,0.0,n.d.,0.2307,A,n.d.,Adimplente,0.0,Sim,Não,Não,214242.013,15518.982,83008.433,167025.195,479794.622,15157.818,494952.44,11033.02,"Administração, defesa, educação e saúde públicas e seguridade social",2020-04-14,2020-06-10,COVID Total,Outros
1302504,Manacapuru,-3.29066,-60.6216,69.35,69.35,69.35,Rio Negro e Solimões,Municipio,Norte,13,AM,97377.0,97377,97377,71.65,0.56,16.16,35.47,61.05,342.58,70.31,55.6,64.38,26.84,3.62,0.614,0.481,0.795,0.604,24,sim,0.0136,A,0.9524,C,0.3455,A,C,Inadimplente,6.0,Sim,Não,Não,735631.256,94792.221,289486.981,368122.342,1488032.801,37132.404,1525165.205,15811.37,"Agricultura, inclusive apoio à agricultura e a pós colheita",2020-03-27,2020-04-03,COVID Total,C/D Inadimplente
1302553,Manaquiri,-3.44078,-60.4612,60.57,60.57,60.57,Entorno de Manaus,Municipio,Norte,13,AM,32105.0,32105,32105,73.52,0.57,21.99,50.5,73.87,254.15,41.09,31.34,66.25,56.76,4.74,0.596,0.51,0.748,0.556,0,não,0.5028,A,0.8859,A,1.0017,C,C,Inadimplente,2.0,Sim,Não,Não,81172.535,7516.798,32109.528,109687.065,230485.925,5435.922,235921.847,7806.29,"Administração, defesa, educação e saúde públicas e seguridade social",2020-04-23,2020-04-25,COVID Total,C/D Inadimplente
1302603,Manaus,-3.11866,-60.0212,0.0,0.0,0.0,Entorno de Manaus,Capital,Norte,13,AM,2182763.0,2182763,2182763,47.41,0.61,3.75,12.9,33.5,790.27,89.65,83.55,50.19,6.45,1.64,0.737,0.658,0.826,0.738,0,não,0.4795,A,0.906,B,0.4802,A,B,Adimplente,0.0,Sim,Não,Não,218516.506,24606559.859,26109606.856,8336749.571,59271432.792,13930218.456,73201651.248,34362.71,Indústrias de transformação,2020-03-13,2020-03-30,COVID Total,Outros
1302702,Manicoré,-5.80462,-61.2895,330.1,330.1,330.1,Amazonas,Municipio,Norte,13,AM,55751.0,55751,55751,71.63,0.6,26.72,47.59,68.47,295.23,61.74,30.63,67.24,52.96,5.09,0.582,0.456,0.747,0.58,0,não,0.4584,A,0.9379,B,0.0356,A,B,Inadimplente,8.0,Sim,Não,Não,146693.03,31513.022,97289.943,205704.317,481200.313,14741.804,495942.117,9065.26,"Administração, defesa, educação e saúde públicas e seguridade social",2020-04-08,2020-04-09,COVID Total,Outros
1302801,Maraã,-1.85313,-65.573,632.59,632.59,632.59,Triângulo,Municipio,Norte,13,AM,18224.0,18224,18224,83.01,0.69,52.14,70.9,85.3,144.99,49.73,29.03,82.75,24.7,5.48,0.498,0.348,0.763,0.466,0,não,0.0,n.d.,0.0,n.d.,0.0,n.d.,n.d.,Inadimplente,9.0,Sim,Não,Não,40683.305,4643.127,19422.953,87536.575,152285.961,1997.032,154282.993,8325.67,"Administração, defesa, educação e saúde públicas e seguridade social",2020-04-22,2020-05-17,COVID Total,Outros
1302900,Maués,-3.39289,-57.7067,258.75,258.75,258.75,Baixo Amazonas,Municipio,Norte,13,AM,63905.0,63905,63905,82.46,0.64,34.31,54.17,76.2,244.3,53.85,40.49,71.87,49.39,4.96,0.588,0.464,0.8,0.549,0,não,0.0583,A,0.9363,B,1.0115,C,C,Inadimplente,4.0,Sim,Não,Não,53141.812,21571.897,107710.425,258749.398,441173.533,17729.473,458903.006,7376.44,"Administração, defesa, educação e saúde públicas e seguridade social",2020-04-16,2020-04-18,COVID Total,C/D Inadimplente
1303007,Nhamundá,-2.20793,-56.7112,381.35,381.35,224.96,Baixo Amazonas,Municipio,Norte,13,AM,21173.0,21173,21173,74.35,0.65,43.78,62.76,78.54,195.12,47.52,35.61,66.54,46.25,7.0,0.586,0.503,0.779,0.513,0,não,0.0,n.d.,0.0,n.d.,0.0,n.d.,n.d.,Inadimplente,9.0,Sim,Não,Não,20888.577,5720.439,29119.836,82653.938,138382.79,3704.416,142087.206,6797.78,"Administração, defesa, educação e saúde públicas e seguridade social",2020-04-23,2020-05-05,COVID Total,Outros
1303106,Nova Olinda do Norte,-3.90037,-59.094,134.7,134.7,134.7,Entorno de Manaus,Municipio,Norte,13,AM,37378.0,37378,37378,72.89,0.63,33.18,58.68,75.71,232.07,55.94,25.53,75.07,62.25,4.92,0.558,0.412,0.78,0.541,0,não,0.0495,A,1.277,C,6.7012,C,C,Inadimplente,4.0,Sim,Não,Não,29418.683,8669.324,42911.558,146620.714,227620.279,6531.947,234152.226,6427.28,"Administração, defesa, educação e saúde públicas e seguridade social",2020-04-22,2020-05-07,COVID Total,C/D Inadimplente
1303205,Novo Airão,-2.63637,-60.9434,115.61,115.61,115.61,Rio Negro e Solimões,Municipio,Norte,13,AM,19454.0,19454,19454,68.78,0.59,30.88,47.65,69.78,246.44,65.45,44.34,69.66,29.18,5.97,0.57,0.434,0.776,0.551,0,não,0.0,n.d.,1.1651,C,3.429,C,n.d.,Inadimplente,5.0,Sim,Não,Não,14716.83,5890.85,32911.484,73570.511,127089.674,4440.431,131530.106,7076.84,"Administração, defesa, educação e saúde públicas e seguridade social",2020-03-30,2020-04-08,COVID Total,Outros
1303304,Novo Aripuanã,-5.12593,-60.3732,226.59,226.59,226.59,Amazonas,Municipio,Norte,13,AM,25644.0,25644,25644,70.09,0.57,31.0,51.32,72.69,219.69,62.61,29.59,68.11,42.07,5.36,0.554,0.421,0.759,0.532,0,não,0.0634,A,1.2669,C,1.637,C,C,Inadimplente,6.0,Sim,Não,Não,46618.703,9699.727,28554.53,93121.802,177994.762,5030.866,183025.628,7288.37,"Administração, defesa, educação e saúde públicas e seguridade social",2020-04-24,2020-05-06,COVID Total,C/D Inadimplente
1303403,Parintins,-2.63741,-56.729,369.51,369.51,226.52,Baixo Amazonas,Municipio,Norte,13,AM,114273.0,114273,114273,73.62,0.59,22.81,42.12,66.21,313.07,73.24,50.17,65.05,36.06,5.34,0.658,0.605,0.8,0.589,46,sim,0.0534,A,0.9874,C,1.8726,C,C,Inadimplente,2.0,Sim,Não,Não,270295.14,52741.063,281036.367,445412.348,1049484.918,42607.023,1092091.941,9593.89,"Administração, defesa, educação e saúde públicas e seguridade social",2020-03-22,2020-03-24,COVID Total,C/D Inadimplente
1303502,Pauini,-7.71311,-66.992,925.27,267.62,267.62,Amazonas,Municipio,Norte,13,AM,19426.0,19426,19426,81.32,0.72,47.23,65.4,80.66,218.21,49.52,15.6,79.94,35.08,6.37,0.496,0.317,0.724,0.531,0,não,0.0483,A,0.9479,B,0.1702,A,B,Inadimplente,5.0,Sim,Não,Não,36155.923,4842.427,24540.368,82498.197,148036.915,2679.062,150715.977,7690.77,"Administração, defesa, educação e saúde públicas e seguridade social",2020-05-10,2020-06-17,COVID Total,Outros
1303536,Presidente Figueiredo,-2.02981,-60.0234,121.07,121.07,121.07,Entorno de Manaus,Municipio,Norte,13,AM,36279.0,36279,36279,60.76,0.52,12.83,25.21,49.86,396.51,83.42,74.67,53.39,15.92,0.99,0.647,0.538,0.802,0.627,0,não,0.15,A,0.856,A,0.5769,A,A,Inadimplente,2.0,Sim,Não,Não,68532.395,54219.955,102500.521,191695.76,416948.631,27870.801,444819.432,12865.72,"Administração, defesa, educação e saúde públicas e seguridade social",2020-04-08,2020-04-10,COVID Total,Outros
1303569,Rio Preto da Eva,-2.7045,-59.6858,59.23,59.23,59.23,Entorno de Manaus,Municipio,Norte,13,AM,33347.0,33347,33347,58.28,0.55,18.28,35.59,59.58,315.24,79.11,71.7,57.89,21.13,1.72,0.611,0.493,0.785,0.59,0,não,0.0356,A,0.9186,B,0.1925,A,B,Adimplente,0.0,Sim,Não,Não,139658.851,35661.034,73723.878,118402.938,367446.7,16377.18,383823.88,11994.12,"Administração, defesa, educação e saúde públicas e seguridade social",2020-04-22,2020-04-24,COVID Total,Outros
1303601,Santa Isabel do Rio Negro,-0.410824,-65.0092,630.82,601.2,601.2,Amazonas,Municipio,Norte,13,AM,25156.0,25156,25156,92.7,0.72,55.11,70.85,84.32,141.04,45.24,23.12,87.59,10.38,10.27,0.479,0.323,0.737,0.461,0,não,0.289,A,1.0166,C,0.2788,A,C,Inadimplente,2.0,Sim,Não,Não,12304.314,3260.837,17641.941,87270.141,120477.233,2144.819,122622.053,5159.77,"Administração, defesa, educação e saúde públicas e seguridade social",2020-04-18,2020-05-13,COVID Total,C/D Inadimplente
1303700,Santo Antônio do Içá,-3.09544,-67.9463,879.94,765.09,765.09,Alto Solimões,Municipio,Norte,13,AM,21602.0,21602,21602,84.71,0.67,55.83,73.16,86.79,122.21,50.55,11.0,77.57,65.89,7.67,0.49,0.353,0.759,0.438,0,não,0.1743,A,0.0,n.d.,0.0,n.d.,n.d.,Inadimplente,1.0,Sim,Não,Não,30261.548,4800.231,29654.694,102597.578,167314.051,5230.286,172544.337,7477.54,"Administração, defesa, educação e saúde públicas e seguridade social",2020-03-26,2020-04-30,COVID Total,Outros
1303809,São Gabriel da Cachoeira,-0.11909,-67.084,852.87,783.91,783.91,Amazonas,Municipio,Norte,13,AM,45564.0,45564,45564,74.34,0.8,42.56,56.81,74.33,355.51,43.43,27.52,77.78,10.81,10.44,0.609,0.476,0.777,0.61,0,não,0.0,n.d.,0.0,n.d.,0.0,n.d.,n.d.,Inadimplente,8.0,Sim,Não,Não,18024.884,11673.669,88169.987,179436.543,297305.083,16217.255,313522.339,7037.06,"Administração, defesa, educação e saúde públicas e seguridade social",2020-04-26,2020-05-03,COVID Total,Outros
1303908,São Paulo de Olivença,-3.47292,-68.9646,993.59,733.87,733.87,Alto Solimões,Municipio,Norte,13,AM,39299.0,39299,39299,81.71,0.64,47.99,66.11,84.66,150.28,38.51,17.23,73.51,51.09,8.11,0.521,0.386,0.78,0.471,0,não,0.0059,A,0.9176,B,3.0314,C,C,Inadimplente,7.0,Sim,Não,Não,27052.258,8390.193,37664.517,157895.772,231002.74,4362.245,235364.986,6186.16,"Administração, defesa, educação e saúde públicas e seguridade social",2020-04-07,2020-04-12,COVID Total,C/D Inadimplente
1303957,São Sebastião do Uatumã,-2.55915,-57.8731,246.54,246.54,246.54,Médio Amazonas,Municipio,Norte,13,AM,14020.0,14020,14020,76.5,0.58,20.35,46.65,72.94,262.79,68.33,43.03,73.32,35.06,3.06,0.577,0.464,0.739,0.561,0,não,0.0434,A,0.9114,B,0.969,A,B,Inadimplente,4.0,Sim,Não,Não,23911.072,4805.712,17770.753,52830.688,99318.225,2236.133,101554.358,7566.82,"Administração, defesa, educação e saúde públicas e seguridade social",2020-04-25,2020-05-29,COVID Total,Outros
1304005,Silves,-2.81748,-58.248,199.73,199.73,199.73,Médio Amazonas,Municipio,Norte,13,AM,9171.0,9171,9171,78.77,0.56,25.98,51.94,72.6,238.53,54.15,32.66,67.9,52.6,5.04,0.632,0.584,0.791,0.546,0,não,0.007,A,0.8166,A,0.0313,A,A,Adimplente,0.0,Sim,Não,Não,33549.214,3282.933,15785.924,41580.079,94198.151,2091.116,96289.267,10453.73,"Administração, defesa, educação e saúde públicas e seguridade social",2020-04-24,2020-05-03,COVID Total,Outros
1304062,Tabatinga,-4.2416,-69.9383,1107.5,678.82,678.82,Alto Solimões,Municipio,Norte,13,AM,65844.0,65844,65844,72.87,0.65,25.83,46.19,69.08,338.4,73.56,37.13,66.49,36.62,3.88,0.616,0.505,0.769,0.602,0,não,0.2015,A,0.9109,B,0.134,A,B,Inadimplente,4.0,Sim,Não,Não,17747.534,19553.218,149266.789,248075.345,434642.886,27090.115,461733.001,7255.96,"Administração, defesa, educação e saúde públicas e seguridade social",2020-04-08,2020-04-12,COVID Total,Outros
1304104,Tapauá,-5.62085,-63.1808,447.34,358.04,358.04,Amazonas,Municipio,Norte,13,AM,17156.0,17156,17156,75.8,0.6,39.66,58.07,76.76,193.97,47.23,46.99,63.26,31.92,3.5,0.502,0.355,0.694,0.512,0,não,0.1297,A,0.93,B,1.1577,C,C,Adimplente,0.0,Sim,Não,Não,206634.034,7937.167,33556.91,87920.744,336048.855,2769.074,338817.929,18896.71,"Produção florestal, pesca e aquicultura",2020-04-24,2020-04-30,COVID Total,Outros
1304203,Tefé,-3.36822,-64.7193,522.3,522.3,522.3,Triângulo,Municipio,Norte,13,AM,59849.0,59849,59849,75.27,0.62,15.15,34.38,59.83,421.41,79.11,46.53,65.68,19.28,3.32,0.639,0.511,0.801,0.637,0,não,0.0252,A,0.8338,A,0.1583,A,A,Inadimplente,8.0,Sim,Não,Não,149899.697,87432.071,205544.383,271088.929,713965.08,30834.523,744799.604,12008.83,"Administração, defesa, educação e saúde públicas e seguridade social",2020-04-10,2020-04-15,COVID Total,Outros
1304237,Tonantins,-2.86582,-67.7919,863.34,784.13,784.13,Alto Solimões,Municipio,Norte,13,AM,18755.0,18755,18755,82.87,0.54,30.93,49.59,78.39,189.15,32.38,9.49,68.99,72.56,3.17,0.548,0.416,0.779,0.508,0,não,0.135,A,0.0,n.d.,0.0,n.d.,n.d.,Inadimplente,8.0,Sim,Não,Não,12096.765,4202.541,21606.203,83442.119,121347.628,2444.857,123792.486,6591.02,"Administração, defesa, educação e saúde públicas e seguridade social",2020-04-02,2020-05-02,COVID Total,Outros
1304260,Uarini,-2.99609,-65.1133,565.57,565.57,565.57,Triângulo,Municipio,Norte,13,AM,13540.0,13540,13540,84.85,0.61,26.51,55.68,80.27,223.11,60.95,21.38,76.13,23.73,4.4,0.527,0.378,0.724,0.535,0,não,0.0453,A,0.9575,C,1.7507,C,C,Inadimplente,6.0,Sim,Não,Não,85658.807,6879.3,28449.983,62017.72,183005.809,3394.316,186400.125,13881.45,"Agricultura, inclusive apoio à agricultura e a pós colheita",2020-05-15,2020-06-05,COVID Total,C/D Inadimplente
1304302,Urucará,-2.52936,-57.7538,260.2,260.2,260.2,Médio Amazonas,Municipio,Norte,13,AM,16256.0,16256,16256,80.49,0.6,31.33,49.07,74.33,246.99,80.65,53.58,65.54,29.65,4.6,0.62,0.575,0.754,0.551,0,não,0.1743,A,1.3153,C,2.4718,C,C,Inadimplente,3.0,Sim,Não,Não,175008.334,6436.099,33399.289,78267.928,293111.651,4948.678,298060.329,17566.03,"Produção florestal, pesca e aquicultura",2020-04-25,2020-04-27,COVID Total,C/D Inadimplente
1304401,Urucurituba,-3.12841,-58.1496,207.81,207.81,207.81,Médio Amazonas,Municipio,Norte,13,AM,23065.0,23065,23065,75.35,0.58,32.03,49.82,72.57,227.55,64.7,46.98,72.31,33.22,4.26,0.588,0.487,0.776,0.538,0,não,0.1374,A,1.0138,C,11.1269,C,C,Inadimplente,5.0,Sim,Não,Não,20951.279,5427.959,29622.453,83028.745,139030.436,3841.291,142871.727,6450.77,"Administração, defesa, educação e saúde públicas e seguridade social",2020-04-26,2020-05-13,COVID Total,C/D Inadimplente
1400027,Amajari,3.64571,-61.3692,119.52,119.52,119.52,Secretaria Estadual de Saúde,Municipio,Norte,14,RR,12796.0,12796,12796,88.88,0.75,59.89,75.51,86.49,121.32,55.65,25.41,73.68,26.96,6.68,0.484,0.319,0.815,0.437,0,não,0.0316,A,0.0,n.d.,0.0,n.d.,n.d.,Inadimplente,8.0,Sim,Não,Não,32745.27,1984.268,12512.616,114721.909,161964.063,1255.934,163219.997,14119.38,"Administração, defesa, educação e saúde públicas e seguridade social",2020-05-05,2020-05-18,COVID Total,Outros
1400050,Alto Alegre,2.98858,-61.3072,72.53,72.53,72.53,Secretaria Estadual de Saúde,Municipio,Norte,14,RR,15510.0,15510,15510,87.23,0.73,51.42,61.63,76.79,201.32,65.14,33.82,68.01,21.22,8.58,0.542,0.379,0.813,0.518,0,não,0.0,n.d.,1.4049,C,0.5826,A,n.d.,Inadimplente,11.0,Sim,Não,Não,73208.645,6884.185,29907.306,165287.73,275287.866,2795.727,278083.593,17453.31,"Administração, defesa, educação e saúde públicas e seguridade social",2020-04-07,2020-04-10,COVID Total,Outros
1400100,Boa Vista,2.82384,-60.6753,0.0,0.0,0.0,Secretaria Estadual de Saúde,Capital,Norte,14,RR,399213.0,399213,399213,49.68,0.58,5.03,13.61,32.27,786.55,98.7,89.2,44.85,4.18,1.18,0.752,0.708,0.816,0.737,0,não,0.0609,A,0.9852,C,0.4627,A,C,Inadimplente,4.0,Sim,Não,Não,131377.743,831621.776,3635874.821,3560455.483,8159329.824,779987.324,8939317.148,26924.03,"Administração, defesa, educação e saúde públicas e seguridade social",2020-03-21,2020-04-03,COVID Total,C/D Inadimplente
1400159,Bonfim,3.36161,-59.8333,110.98,110.98,110.98,Secretaria Estadual de Saúde,Municipio,Norte,14,RR,12409.0,12409,12409,86.2,0.72,34.94,54.19,71.87,329.22,91.78,43.28,69.88,40.25,6.5,0.626,0.509,0.809,0.597,0,não,0.2774,A,1.7509,C,1.8614,C,C,Inadimplente,3.0,Sim,Não,Não,97386.632,8680.672,30599.135,127716.372,264382.81,2704.46,267087.271,22359.75,"Administração, defesa, educação e saúde públicas e seguridade social",2020-03-24,2020-05-26,COVID Total,C/D Inadimplente
1400175,Cantá,2.60994,-60.6058,25.01,25.01,25.01,Secretaria Estadual de Saúde,Municipio,Norte,14,RR,18335.0,18335,18335,73.28,0.66,33.95,47.29,68.88,297.59,93.26,44.13,64.07,38.43,3.11,0.619,0.509,0.803,0.581,0,não,1.0186,B,0.8318,A,-0.0863,C,C,Inadimplente,11.0,Sim,Não,Não,26582.548,11538.221,23253.359,172466.024,233840.152,13997.154,247837.307,14684.91,"Administração, defesa, educação e saúde públicas e seguridade social",2020-04-02,2020-05-22,COVID Total,C/D Inadimplente
1400209,Caracaraí,1.82766,-61.1304,121.76,121.76,121.76,Secretaria Estadual de Saúde,Municipio,Norte,14,RR,21926.0,21926,21926,67.47,0.56,17.05,35.46,61.64,336.05,88.5,61.25,64.14,21.66,3.77,0.624,0.518,0.78,0.601,0,não,0.7894,B,0.0,n.d.,-0.0349,C,n.d.,Inadimplente,11.0,Sim,Não,Não,36164.382,14355.819,58691.527,221827.623,331039.351,19613.916,350653.267,16852.66,"Administração, defesa, educação e saúde públicas e seguridade social",2020-04-30,2020-06-11,COVID Total,Outros
1400233,Caroebe,0.884203,-59.6959,241.59,241.59,241.59,Secretaria Estadual de Saúde,Municipio,Norte,14,RR,10169.0,10169,10169,62.18,0.55,14.79,36.44,61.05,334.97,94.48,59.6,45.95,25.54,1.8,0.639,0.549,0.791,0.6,0,não,0.708,B,-6.9043,A,0.9852,A,B,Inadimplente,1.0,Sim,Não,Não,37000.446,5014.83,19645.715,99119.661,160780.652,2267.56,163048.212,17175.63,"Administração, defesa, educação e saúde públicas e seguridade social",2020-04-21,2020-05-12,COVID Total,Outros
1400282,Iracema,2.18305,-61.0415,82.05,82.05,82.05,Secretaria Estadual de Saúde,Municipio,Norte,14,RR,11950.0,11950,11950,62.85,0.62,36.27,47.85,67.8,261.18,80.99,57.33,57.71,12.25,4.25,0.582,0.434,0.81,0.56,0,não,0.2637,A,0.7126,A,0.1379,A,A,Inadimplente,8.0,Sim,Não,Não,20592.832,2520.063,16384.734,109750.1,149247.728,2045.434,151293.162,13932.51,"Administração, defesa, educação e saúde públicas e seguridade social",2020-05-14,2020-05-14,COVID Total,Outros
1400308,Mucajaí,2.43998,-60.9096,49.99,49.99,49.99,Secretaria Estadual de Saúde,Municipio,Norte,14,RR,17853.0,17853,17853,61.54,0.71,22.23,37.16,60.16,487.66,94.38,66.41,52.22,16.82,3.24,0.665,0.547,0.813,0.661,0,não,0.6684,B,26.6434,C,1.3741,C,C,Adimplente,0.0,Sim,Não,Não,38565.173,17665.913,51922.103,176011.451,284164.64,15871.787,300036.427,17804.2,"Administração, defesa, educação e saúde públicas e seguridade social",2020-04-16,2020-05-26,COVID Total,Outros
1400407,Normandia,3.8853,-59.6204,166.26,166.26,166.26,Secretaria Estadual de Saúde,Municipio,Norte,14,RR,11290.0,11290,11290,104.9,0.7,47.59,64.43,77.36,203.43,65.16,35.64,82.4,35.77,6.39,0.594,0.502,0.801,0.52,0,não,0.5182,A,0.0,n.d.,0.0,n.d.,n.d.,Inadimplente,9.0,Sim,Não,Não,19963.185,2903.965,13224.948,111324.086,147416.184,1100.879,148517.063,14108.2,"Administração, defesa, educação e saúde públicas e seguridade social",2020-05-05,2020-06-09,COVID Total,Outros
1400456,Pacaraima,4.4799,-61.1477,191.46,191.46,191.46,Secretaria Estadual de Saúde,Municipio,Norte,14,RR,17401.0,17401,17401,83.87,0.74,39.16,51.71,67.64,388.35,79.57,44.16,69.2,31.99,5.7,0.65,0.558,0.788,0.624,0,não,0.0,n.d.,0.0,n.d.,0.0,n.d.,n.d.,Inadimplente,10.0,Sim,Não,Não,7430.255,3951.288,28548.742,126589.156,166519.44,5254.256,171773.696,13880.7,"Administração, defesa, educação e saúde públicas e seguridade social",2020-04-11,2020-05-11,COVID Total,Outros
1400472,Rorainópolis,0.939956,-60.4389,211.12,211.12,211.12,Secretaria Estadual de Saúde,Municipio,Norte,14,RR,30163.0,30163,30163,58.77,0.57,26.59,42.66,65.32,284.22,87.9,47.32,51.09,37.15,3.26,0.619,0.519,0.798,0.574,0,não,0.0,n.d.,1.5547,C,0.0,n.d.,n.d.,Inadimplente,7.0,Sim,Não,Não,46190.28,37492.745,108204.339,288615.335,480502.698,50860.412,531363.111,18832.65,"Administração, defesa, educação e saúde públicas e seguridade social",2020-04-16,2020-05-16,COVID Total,Outros
1400506,São João da Baliza,0.951659,-59.9133,224.74,224.74,224.74,Secretaria Estadual de Saúde,Municipio,Norte,14,RR,8201.0,8201,8201,59.78,0.53,13.96,31.23,56.19,365.67,93.77,72.54,44.94,9.65,1.68,0.655,0.587,0.78,0.614,0,não,0.0,n.d.,175.9508,C,2.3538,C,n.d.,Inadimplente,1.0,Sim,Não,Não,14711.612,9877.53,29004.319,83538.65,137132.11,17990.329,155122.439,20041.66,"Administração, defesa, educação e saúde públicas e seguridade social",2020-05-05,2020-06-08,COVID Total,Outros
1400605,São Luiz,1.01019,-60.0419,213.6,213.6,213.6,Secretaria Estadual de Saúde,Municipio,Norte,14,RR,7986.0,7986,7986,47.86,0.55,18.06,33.52,60.11,344.73,94.87,78.15,41.44,12.03,4.42,0.649,0.574,0.788,0.605,0,não,0.007,A,0.0,n.d.,0.2861,A,n.d.,Inadimplente,1.0,Sim,Não,Não,16062.618,4185.133,17270.801,76332.066,113850.618,5503.438,119354.056,15710.68,"Administração, defesa, educação e saúde públicas e seguridade social",2020-04-17,2020-05-17,COVID Total,Outros
1400704,Uiramutã,4.60314,-60.1815,205.3,205.3,205.3,Secretaria Estadual de Saúde,Municipio,Norte,14,RR,10559.0,10559,10559,118.04,0.78,69.67,78.59,86.91,123.16,47.3,9.57,88.64,21.62,5.4,0.453,0.276,0.766,0.439,0,não,0.4686,A,2.1445,C,0.4247,A,C,Inadimplente,2.0,Sim,Não,Não,11157.564,1186.089,5479.507,98078.992,115902.152,627.468,116529.62,11847.26,"Administração, defesa, educação e saúde públicas e seguridade social",2020-05-13,2020-05-22,COVID Total,C/D Inadimplente
1500107,Abaetetuba,-1.72183,-48.8788,52.41,52.41,0.0,Alça Viária,Municipio,Norte,15,PA,157698.0,157698,157698,55.37,0.53,18.98,38.95,65.93,293.01,68.86,44.71,62.09,39.8,4.23,0.628,0.537,0.798,0.579,20,sim,0.0,n.d.,0.0,n.d.,0.0,n.d.,n.d.,Inadimplente,10.0,Sim,Não,Não,168016.036,64763.436,478538.81,527218.862,1238537.145,98657.229,1337194.373,8718.18,"Administração, defesa, educação e saúde públicas e seguridade social",2020-03-31,2020-05-08,COVID Total,Outros
1500131,Abel Figueiredo,-4.95333,-48.3933,389.1,389.1,94.68,Rodovia BR 222,Municipio,Norte,15,PA,7434.0,7434,7434,57.78,0.57,9.38,31.19,58.48,390.12,91.76,63.79,38.23,26.33,3.76,0.622,0.481,0.8,0.625,0,não,0.0,n.d.,1.0334,C,0.0,n.d.,n.d.,Inadimplente,4.0,Sim,Não,Não,19371.164,6034.171,20831.263,29534.895,75771.493,4863.354,80634.846,11151.27,"Administração, defesa, educação e saúde públicas e seguridade social",2020-05-09,2020-05-10,COVID Total,Outros
1500206,Acará,-1.95383,-48.1985,64.19,64.19,64.19,Rodovia PA-140/Rio Capim,Municipio,Norte,15,PA,55591.0,55591,55591,69.23,0.53,27.51,53.47,76.53,199.34,64.01,20.25,63.18,55.71,5.4,0.506,0.332,0.757,0.517,0,não,0.8962,B,0.9947,C,0.0,n.d.,n.d.,Inadimplente,6.0,Sim,Não,Não,541087.593,43270.146,109656.806,219758.068,913772.613,18379.521,932152.134,17231.44,"Agricultura, inclusive apoio à agricultura e a pós colheita",2020-04-11,2020-05-01,COVID Total,Outros
1500305,Afuá,-0.154874,-50.3861,255.66,78.86,78.86,Marajó Oriental,Municipio,Norte,15,PA,39218.0,39218,39218,82.38,0.66,45.65,64.88,83.32,163.98,26.56,14.79,78.76,76.98,5.54,0.489,0.311,0.774,0.485,0,não,0.5594,A,1.0474,C,1.8834,C,C,Inadimplente,8.0,Sim,Não,Não,133202.536,18335.916,43767.8,154324.465,349630.717,8630.488,358261.205,9392.33,"Administração, defesa, educação e saúde públicas e seguridade social",2020-04-17,2020-05-25,COVID Total,C/D Inadimplente
1500347,Água Azul do Norte,-6.79053,-50.4791,632.91,449.03,102.47,Araguaia-Xingu,Municipio,Norte,15,PA,27430.0,27430,27430,43.59,0.49,22.36,33.99,60.38,266.02,94.37,72.93,38.54,19.47,1.51,0.564,0.399,0.797,0.563,0,não,-0.0227,A,0.9175,B,2.8751,C,C,Inadimplente,2.0,Sim,Não,Não,147164.646,101880.708,51210.841,92729.533,392985.727,49916.331,442902.058,16599.28,"Pecuária, inclusive apoio à pecuária",2020-04-30,,Contaminação sem óbitos,C/D Inadimplente
1500404,Alenquer,-1.94623,-54.7384,696.65,463.58,54.91,Baixo Amazonas,Municipio,Norte,15,PA,56789.0,56789,56789,76.46,0.58,34.14,52.34,75.77,215.33,79.14,28.88,61.79,59.29,6.27,0.564,0.436,0.779,0.529,0,não,0.0338,A,0.0,n.d.,0.0,n.d.,n.d.,Inadimplente,9.0,Sim,Não,Não,266752.844,24156.003,104019.964,200518.533,595447.344,13796.973,609244.317,11027.84,"Agricultura, inclusive apoio à agricultura e a pós colheita",2020-04-23,2020-05-25,COVID Total,Outros
1500503,Almeirim,-1.52904,-52.5788,454.6,241.67,241.67,Baixo Amazonas,Municipio,Norte,15,PA,34109.0,34109,34109,64.02,0.65,20.47,38.3,57.77,484.16,78.03,46.54,51.2,33.56,3.78,0.642,0.497,0.809,0.659,0,não,0.0,n.d.,0.0,n.d.,0.0,n.d.,n.d.,Inadimplente,10.0,Sim,Não,Não,71865.202,252754.107,135829.74,145872.064,606321.114,59727.708,666048.822,20064.73,Indústrias de transformação,2020-04-25,2020-04-30,COVID Total,Outros
1500602,Altamira,-3.20407,-52.21,456.76,381.82,289.3,Rodovia Transamazônica,Municipio,Norte,15,PA,114594.0,114594,114594,53.81,0.56,11.25,22.38,45.82,492.05,86.79,65.31,40.91,24.32,2.82,0.665,0.548,0.811,0.662,0,não,0.0001,A,0.0,n.d.,0.0,n.d.,n.d.,Inadimplente,9.0,Sim,Não,Não,245254.419,590947.951,1045440.788,400783.423,2282426.582,218164.027,2500590.608,22439.9,Demais serviços,2020-04-03,2020-05-02,COVID Total,Outros
1500701,Anajás,-0.996811,-49.9354,168.6,168.6,142.46,Marajó Ocidental,Municipio,Norte,15,PA,29277.0,29277,29277,88.3,0.62,38.53,62.02,82.27,186.88,21.06,11.79,75.33,76.03,7.22,0.484,0.29,0.774,0.506,0,não,0.0,n.d.,0.0,n.d.,0.0,n.d.,n.d.,Inadimplente,9.0,Sim,Não,Não,38740.472,11521.776,31267.694,114768.29,196298.233,8421.593,204719.825,7191.73,"Administração, defesa, educação e saúde públicas e seguridade social",2020-05-05,2020-05-15,COVID Total,Outros
1500800,Ananindeua,-1.36391,-48.3743,16.38,16.38,0.0,Metropolitana,Municipio,Norte,15,PA,530598.0,530598,530598,43.01,0.52,4.16,13.94,37.46,564.76,92.1,78.93,43.37,9.43,2.11,0.718,0.658,0.821,0.684,7,sim,0.0606,A,0.9381,B,-0.0056,C,C,Adimplente,0.0,Sim,Não,Não,11087.803,1099382.068,3482314.375,1561492.76,6154277.006,824858.026,6979135.032,13523.96,Demais serviços,2020-03-25,2020-04-17,COVID Total,Outros
1500859,Anapu,-3.46985,-51.2003,375.28,375.28,312.55,Rodovia Transamazônica,Municipio,Norte,15,PA,27890.0,27890,27890,64.07,0.58,26.31,44.8,66.96,266.28,84.69,24.33,50.41,48.31,3.84,0.548,0.371,0.788,0.563,0,não,0.0402,A,0.9929,C,0.0,n.d.,n.d.,Inadimplente,3.0,Sim,Não,Não,94524.278,21315.455,96174.907,109638.111,321652.751,29549.89,351202.641,12961.42,"Administração, defesa, educação e saúde públicas e seguridade social",2020-04-24,2020-05-28,COVID Total,Outros
1500909,Augusto Corrêa,-1.05109,-46.6147,213.24,213.24,147.33,Bacia Atlântico-Caetés,Municipio,Norte,15,PA,45998.0,45998,45998,74.78,0.56,40.76,62.59,81.91,159.05,82.76,25.07,55.27,49.51,8.04,0.52,0.38,0.772,0.48,0,não,0.0575,A,0.0,n.d.,0.0,n.d.,n.d.,Inadimplente,4.0,Sim,Não,Não,76643.103,13000.862,54398.611,180939.424,324982.0,7792.981,332774.98,7438.97,"Administração, defesa, educação e saúde públicas e seguridade social",2020-04-20,2020-04-30,COVID Total,Outros
1500958,Aurora do Pará,-2.14898,-47.5677,128.26,128.26,102.27,Rodovia BR 010,Municipio,Norte,15,PA,31338.0,31338,31338,64.17,0.56,33.58,55.64,78.58,184.39,83.68,39.58,53.46,38.79,7.53,0.519,0.358,0.773,0.504,0,não,0.0075,A,1.0387,C,0.0,n.d.,n.d.,Inadimplente,7.0,Sim,Não,Não,95370.681,14041.588,40529.762,119917.489,269859.519,7533.004,277392.523,9103.49,"Administração, defesa, educação e saúde públicas e seguridade social",2020-04-24,2020-05-27,COVID Total,Outros
1501006,Aveiro,-3.60841,-55.3199,795.56,524.69,147.2,Rio Tapajós,Municipio,Norte,15,PA,16388.0,16388,16388,81.66,0.6,41.63,65.69,84.82,148.71,66.97,24.13,62.65,61.45,10.07,0.541,0.45,0.748,0.47,0,não,0.0264,A,0.0,n.d.,0.0,n.d.,n.d.,Inadimplente,7.0,Sim,Não,Não,63576.107,4583.002,13239.518,61333.286,142731.913,1984.702,144716.615,9074.85,"Administração, defesa, educação e saúde públicas e seguridade social",2020-05-26,2020-06-18,COVID Total,Outros
1501105,Bagre,-1.90057,-50.1987,196.28,196.28,148.03,Marajó Ocidental,Municipio,Norte,15,PA,30673.0,30673,30673,85.18,0.48,28.34,59.68,85.93,159.41,43.17,14.56,81.17,69.04,3.79,0.471,0.28,0.777,0.481,0,não,0.0,n.d.,0.0,n.d.,0.0,n.d.,n.d.,Inadimplente,11.0,Sim,Não,Não,53732.059,4994.602,21126.441,93193.262,173046.364,3194.826,176241.19,5912.55,"Administração, defesa, educação e saúde públicas e seguridade social",2020-04-26,2020-05-10,COVID Total,Outros
1501204,Baião,-2.79021,-49.6694,198.01,198.01,147.75,Baixo Tocantins,Municipio,Norte,15,PA,47446.0,47446,47446,65.28,0.53,28.21,47.95,70.94,226.99,80.15,45.79,63.52,33.51,4.26,0.578,0.467,0.77,0.538,0,não,0.1563,A,0.0,n.d.,0.0,n.d.,n.d.,Inadimplente,10.0,Sim,Não,Não,110000.81,11565.376,54056.221,172414.427,348036.835,8554.566,356591.401,7733.49,"Administração, defesa, educação e saúde públicas e seguridade social",2020-04-29,2020-05-03,COVID Total,Outros
1501253,Bannach,-7.34779,-50.3959,688.41,392.01,152.35,Planalto do Araguaia,Municipio,Norte,15,PA,3286.0,3286,3286,54.62,0.62,17.47,34.52,59.56,416.31,87.7,67.44,32.46,19.99,4.18,0.594,0.42,0.784,0.635,0,não,0.025,A,0.9681,C,0.0,n.d.,n.d.,Inadimplente,3.0,Sim,Não,Não,47504.474,1399.954,8216.809,17338.939,74460.176,2002.819,76462.995,23894.69,"Pecuária, inclusive apoio à pecuária",2020-04-30,2020-05-02,COVID Total,Outros
1501303,Barcarena,-1.51187,-48.6195,15.73,15.73,15.73,Alça Viária,Municipio,Norte,15,PA,124680.0,124680,124680,55.0,0.55,10.49,26.03,49.56,437.43,82.0,62.13,51.4,26.34,2.32,0.662,0.564,0.801,0.643,0,não,0.037,A,0.8492,A,0.5321,A,A,Inadimplente,2.0,Sim,Não,Não,94650.428,2001463.17,1122268.618,504390.371,3722772.587,1092421.557,4815194.144,39732.6,Indústrias de transformação,2020-04-01,2020-04-24,COVID Total,Outros
1501402,Belém,-1.4554,-48.4898,0.0,0.0,0.0,Metropolitana,Capital,Norte,15,PA,1492745.0,1492745,1492745,42.06,0.61,3.54,13.04,33.26,853.82,96.09,86.84,43.19,4.73,2.44,0.746,0.673,0.822,0.751,0,não,0.4001,A,0.0,n.d.,1.4012,C,n.d.,Inadimplente,1.0,Sim,Não,Não,79109.937,3658234.032,17155769.271,4717846.88,25610960.118,4627523.843,30238483.961,20821.46,Demais serviços,2020-03-18,2020-04-06,COVID Total,Outros
1501451,Belterra,-2.63609,-54.9374,728.4,522.56,34.36,Baixo Amazonas,Municipio,Norte,15,PA,17732.0,17732,17732,70.3,0.58,28.5,47.03,72.35,241.57,68.7,37.92,50.75,50.79,6.24,0.588,0.478,0.775,0.548,0,não,0.5503,A,1.0077,C,0.6607,A,C,Inadimplente,1.0,Sim,Não,Não,44273.9,8590.933,30510.813,69674.456,153050.103,5013.849,158063.952,9163.66,"Administração, defesa, educação e saúde públicas e seguridade social",2020-05-02,2020-05-17,COVID Total,C/D Inadimplente
1501501,Benevides,-1.36183,-48.2434,29.3,29.3,14.55,Metropolitana,Municipio,Norte,15,PA,62737.0,62737,62737,51.61,0.48,6.95,21.31,51.03,385.83,94.01,76.75,50.46,16.13,3.15,0.665,0.592,0.798,0.623,0,não,0.0,n.d.,0.9453,B,0.0,n.d.,n.d.,Inadimplente,3.0,Sim,Não,Não,3717.471,409696.868,501371.187,211930.248,1126715.775,267168.766,1393884.54,22854.31,Indústrias de transformação,2020-04-03,2020-04-24,COVID Total,Outros
1501576,Bom Jesus do Tocantins,-5.0424,-48.6047,399.06,399.06,69.53,Rodovia BR 222,Municipio,Norte,15,PA,16981.0,16981,16981,56.41,0.52,12.98,31.11,58.75,337.28,88.44,50.48,42.46,30.1,2.98,0.589,0.437,0.777,0.601,0,não,0.0,n.d.,0.0,n.d.,0.0,n.d.,n.d.,Inadimplente,6.0,Sim,Não,Não,52563.399,6364.148,35088.175,60371.453,154387.175,10238.577,164625.752,9967.05,"Administração, defesa, educação e saúde públicas e seguridade social",2020-04-26,,Contaminação sem óbitos,Outros
1501600,Bonito,-1.36745,-47.3066,131.89,131.89,68.26,Bacia Atlântico-Caetés,Municipio,Norte,15,PA,16286.0,16286,16286,58.58,0.5,22.74,47.84,74.47,218.05,88.71,32.4,42.79,42.65,4.11,0.546,0.398,0.77,0.531,0,não,0.3133,A,1.0002,C,0.0,n.d.,n.d.,Inadimplente,9.0,Sim,Não,Não,22619.556,25452.964,21527.773,51829.717,121430.01,14804.015,136234.026,8603.89,"Administração, defesa, educação e saúde públicas e seguridade social",2020-04-27,2020-05-22,COVID Total,Outros
1501709,Bragança,-1.06126,-46.7826,194.78,194.78,128.8,Bacia Atlântico-Caetés,Municipio,Norte,15,PA,127686.0,127686,127686,60.62,0.58,20.59,41.59,66.91,311.97,73.73,55.22,48.56,33.48,4.3,0.6,0.486,0.755,0.589,2,sim,0.005,A,0.9814,C,0.0,n.d.,n.d.,Inadimplente,8.0,Sim,Não,Não,188254.806,70454.722,383037.165,407072.062,1048818.755,67075.793,1115894.549,8985.82,"Administração, defesa, educação e saúde públicas e seguridade social",2020-04-14,2020-04-24,COVID Total,Outros
1501725,Brasil Novo,-3.29792,-52.534,493.8,404.77,258.79,Rodovia Transamazônica,Municipio,Norte,15,PA,15086.0,15086,15086,55.42,0.67,26.63,41.29,61.82,408.55,81.02,52.48,35.9,27.73,4.41,0.613,0.451,0.809,0.632,0,não,0.0,n.d.,0.9749,C,0.0,n.d.,n.d.,Inadimplente,3.0,Sim,Não,Não,86126.357,10211.518,65898.0,63369.891,225605.766,14443.343,240049.108,16342.1,"Administração, defesa, educação e saúde públicas e seguridade social",2020-05-10,2020-05-25,COVID Total,Outros
1501758,Brejo Grande do Araguaia,-5.69822,-48.4103,471.86,471.86,87.4,Serra das Andorinhas,Municipio,Norte,15,PA,7380.0,7380,7380,60.06,0.57,20.34,40.26,64.88,310.08,93.36,42.1,36.62,41.91,5.27,0.591,0.473,0.743,0.588,0,não,0.0,n.d.,0.0,n.d.,0.0,n.d.,n.d.,Inadimplente,11.0,Sim,Não,Não,27151.65,3650.623,16831.525,29680.551,77314.349,3255.47,80569.818,11218.3,"Administração, defesa, educação e saúde públicas e seguridade social",2020-05-18,,Contaminação sem óbitos,Outros
1501782,Breu Branco,-3.77191,-49.5735,284.32,284.32,185.45,Lago Tucuruí,Municipio,Norte,15,PA,66046.0,66046,66046,66.22,0.53,20.91,43.11,71.34,252.31,88.19,42.8,53.72,45.37,2.79,0.568,0.422,0.781,0.555,0,não,0.2355,A,0.0,n.d.,3.2109,C,n.d.,Inadimplente,4.0,Sim,Não,Não,131218.264,54835.42,125094.644,226445.822,537594.15,42740.234,580334.384,9040.32,"Administração, defesa, educação e saúde públicas e seguridade social",2020-05-02,2020-05-17,COVID Total,Outros
1501808,Breves,-1.68036,-50.4791,222.53,201.71,177.93,Marajó Ocidental,Municipio,Norte,15,PA,102701.0,102701,102701,81.75,0.58,32.09,56.22,79.45,209.14,45.63,22.97,74.51,60.55,6.27,0.503,0.312,0.778,0.524,66,sim,0.0,n.d.,0.0,n.d.,0.0,n.d.,n.d.,Inadimplente,11.0,Sim,Não,Não,44858.066,33466.239,205473.696,420234.401,704032.401,39253.685,743286.086,7440.6,"Administração, defesa, educação e saúde públicas e seguridade social",2020-04-20,2020-04-21,COVID Total,Outros
1501907,Bujaru,-1.51762,-48.0381,50.68,50.68,27.9,Rodovia PA-140/Rio Capim,Municipio,Norte,15,PA,29132.0,29132,29132,71.53,0.52,31.25,54.0,81.17,174.18,73.37,23.83,63.07,54.04,6.65,0.552,0.437,0.779,0.495,0,não,1.3339,B,0.9786,C,2.5232,C,C,Inadimplente,5.0,Sim,Não,Não,307718.22,24191.841,58044.195,100234.541,490188.797,8615.86,498804.657,17606.32,"Agricultura, inclusive apoio à agricultura e a pós colheita",2020-04-11,2020-04-30,COVID Total,C/D Inadimplente
1501956,Cachoeira do Piriá,-1.75974,-46.5459,218.7,218.7,160.79,Bacia Atlântico-Caetés,Municipio,Norte,15,PA,33900.0,33900,33900,74.59,0.58,43.93,67.43,89.24,130.4,71.32,6.68,58.42,75.78,3.6,0.473,0.303,0.779,0.449,0,não,0.6261,B,0.9749,C,0.7254,A,C,Inadimplente,4.0,Sim,Não,Não,42532.077,5822.313,25490.3,109035.099,182879.789,5227.725,188107.514,5709.4,"Administração, defesa, educação e saúde públicas e seguridade social",2020-05-02,2020-07-01,COVID Total,C/D Inadimplente
1502004,Cachoeira do Arari,-1.01226,-48.9503,71.05,71.05,71.05,Marajó Oriental,Municipio,Norte,15,PA,23767.0,23767,23767,63.44,0.6,36.27,54.4,73.24,209.79,76.66,31.57,60.19,46.84,7.92,0.546,0.398,0.778,0.525,0,não,-0.0047,A,0.0,n.d.,0.0,n.d.,n.d.,Inadimplente,12.0,Sim,Não,Não,58861.902,5251.935,22888.838,81916.036,168918.711,3559.203,172477.914,7463.35,"Administração, defesa, educação e saúde públicas e seguridade social",2020-04-15,2020-04-28,COVID Total,Outros
1502103,Cametá,-2.24295,-49.4979,142.2,142.2,89.95,Baixo Tocantins,Municipio,Norte,15,PA,137890.0,137890,137890,69.15,0.58,29.03,50.71,75.25,226.99,62.32,43.07,71.59,42.24,7.07,0.577,0.474,0.754,0.538,22,sim,0.0007,A,0.0,n.d.,0.1466,A,n.d.,Inadimplente,13.0,Sim,Não,Não,366372.223,39353.003,248365.182,490823.304,1144913.712,38611.063,1183524.775,8825.69,"Administração, defesa, educação e saúde públicas e seguridade social",2020-04-06,2020-04-06,COVID Total,Outros
1502152,Canaã dos Carajás,-6.49659,-49.8776,581.3,448.64,47.77,Serra dos Carajás,Municipio,Norte,15,PA,37085.0,37085,37085,53.8,0.55,8.24,20.83,45.63,517.33,94.89,62.11,36.0,21.73,2.29,0.673,0.569,0.801,0.67,0,não,0.0861,A,0.0,n.d.,0.0846,A,n.d.,Inadimplente,4.0,Sim,Não,Não,65250.267,2841821.974,722988.214,264959.556,3895020.01,192511.895,4087531.905,113457.46,Indústrias extrativas,2020-04-14,2020-04-14,COVID Total,Outros
1502202,Capanema,-1.20529,-47.1778,148.48,148.48,82.79,Bacia Atlântico-Caetés,Municipio,Norte,15,PA,69027.0,69027,69027,52.88,0.53,14.23,30.91,56.52,356.27,90.45,56.34,32.96,21.88,5.14,0.655,0.58,0.794,0.61,0,não,0.272,A,0.9894,C,1.9349,C,C,Inadimplente,4.0,Sim,Não,Não,25365.067,115074.876,472787.492,226343.559,839570.993,127779.609,967350.602,14405.82,Demais serviços,2020-04-13,2020-04-27,COVID Total,C/D Inadimplente
1502301,Capitão Poço,-1.74785,-47.0629,161.9,161.9,107.28,Rodovia BR 010,Municipio,Norte,15,PA,54303.0,54303,54303,61.74,0.62,25.24,50.15,73.18,283.1,86.31,47.99,44.76,35.45,4.7,0.548,0.385,0.747,0.573,0,não,0.0,n.d.,1.036,C,0.0,n.d.,n.d.,Inadimplente,2.0,Sim,Não,Não,100979.429,23273.876,130454.33,178637.534,433345.169,20640.492,453985.661,8591.87,"Administração, defesa, educação e saúde públicas e seguridade social",2020-04-15,2020-05-10,COVID Total,Outros
1502400,Castanhal,-1.29797,-47.9167,66.07,66.07,0.0,Rio Guamá,Municipio,Norte,15,PA,200793.0,200793,200793,49.38,0.54,7.15,22.93,48.59,467.32,92.91,67.2,41.74,19.78,3.39,0.673,0.582,0.8,0.654,64,sim,0.0,n.d.,0.0,n.d.,0.0,n.d.,n.d.,Inadimplente,7.0,Sim,Não,Não,103397.464,588918.457,1782470.514,729439.338,3204225.773,552933.004,3757158.777,19242.51,Demais serviços,2020-03-26,2020-04-26,COVID Total,Outros
1502509,Chaves,-0.164154,-49.987,219.83,122.38,122.38,Marajó Oriental,Municipio,Norte,15,PA,23717.0,23717,23717,78.63,0.67,43.41,63.04,78.69,198.83,27.88,8.91,72.7,85.36,7.04,0.453,0.234,0.769,0.516,0,não,0.1276,A,1.0353,C,0.0,n.d.,n.d.,Inadimplente,2.0,Sim,Não,Não,72241.793,5315.031,12849.281,88031.963,178438.069,2963.179,181401.248,7864.44,"Administração, defesa, educação e saúde públicas e seguridade social",2020-05-03,2020-05-15,COVID Total,Outros
1502608,Colares,-0.936423,-48.2803,62.23,62.23,48.67,Rodovia PA-140/Rio Guajará-Mirim,Municipio,Norte,15,PA,12085.0,12085,12085,65.66,0.56,26.14,51.27,74.47,231.98,88.59,53.01,52.4,37.01,5.42,0.602,0.528,0.763,0.541,0,não,0.0,n.d.,0.0,n.d.,0.0,n.d.,n.d.,Inadimplente,11.0,Sim,Não,Não,13842.915,2676.369,14930.477,45654.909,77104.669,1938.652,79043.321,6721.94,"Administração, defesa, educação e saúde públicas e seguridade social",2020-04-20,2020-05-01,COVID Total,Outros
1502707,Conceição do Araguaia,-8.26136,-49.2689,761.69,241.76,166.99,Araguaia,Municipio,Norte,15,PA,47864.0,47864,47864,57.88,0.54,11.78,27.91,50.74,405.29,89.89,71.41,30.76,15.58,3.94,0.64,0.54,0.77,0.631,0,não,0.6298,B,0.0,n.d.,0.5947,A,n.d.,Inadimplente,6.0,Sim,Não,Não,82466.854,44821.641,212233.329,175540.293,515062.117,44299.316,559361.433,12010.94,"Administração, defesa, educação e saúde públicas e seguridade social",2020-04-13,2020-05-11,COVID Total,Outros
